StationID,LocationName,Address,City,State,Postcode,Country,Latitude,Longitude,PlugTypes,PowerKW,Quantity,NetworkProvider,UsageType,Status,LastVerified,Comments,UsageCost,PaymentRequired,MembershipRequired
155646,Claremore Plaza - Francis Energy,1660 N Lynn Riggs Blvd,Claremore,OK,74017,United States,36.32489227,-95.60749264,"CCS (Type 1), CHAdeMO","50, 50",8,Francis Energy,Public,Operational,2024-02-11T03:44:00Z,"General: 50kW DC Fast Chargers Provided by Francis Energy, Access: Use EVGateway App to manage charging ; No reviews found",$1.00/session+$0.21/minute,N/A,N/A
222132,Temple of Israel,2103 E 23rd St,Tulsa,OK,74114,United States,36.12988,-95.963011,"CHAdeMO, CCS (Type 1), CCS (Type 1), CHAdeMO","100, 100, 60, 60",8,Francis Energy,Public,Operational,2024-02-10T13:51:00Z,Access: 24 hours daily; No reviews found,N/A,N/A,N/A
269256,LIBERTY EMPIRE ASBURY,21133 Uphill Rd,Asbury,MO,64832,United States,37.362007,-94.59034,Type 1 (J1772),3.7,2,ChargePoint,Public,Operational,2024-02-20T09:59:00Z,Access: 24 hours daily; No reviews found,N/A,N/A,N/A
155642,Staples - Francis Energy,2711 S Harvard Ave,Tulsa,OK,74114,United States,36.12356501,-95.93976978,"CCS (Type 1), CHAdeMO","50, 50",8,Francis Energy,Public,Operational,2024-02-11T14:41:00Z,"General: 50kW DC Fast Chargers Provided by Francis Energy, Access: Use EVGateway App to manage charging; Error occurred",$1.00/session+$0.21/minute,N/A,N/A
123647,LIBERTY EMPIRE KCUMB-JOPLIN 1,2901 St Johns Blvd,Joplin,MO,64804,United States,37.058648,-94.52749,Type 1 (J1772),3.7,2,ChargePoint,Public,Operational,2023-03-07T05:15:00Z,Access: 24 hours daily; Error occurred,N/A,N/A,N/A
222648,LIBERTY EMPIRE CJHS 2,806 Walnut,Carl Junction,MO,64834,United States,37.178352,-94.57516,Type 1 (J1772),3.7,2,ChargePoint,Public,Operational,2024-02-20T09:59:00Z,Access: 24 hours daily; No reviews found,N/A,N/A,N/A
110291,Francis Solar,1924 E 6th St,Tulsa,OK,74104,United States,36.151811,-95.963779,"Type 1 (J1772), Tesla (Model S/X)","9.6, 15.4",2,N/A,Public,Operational,2018-11-13T13:27:00Z,"General: One Tesla & One J1772, both free all of the time. , Access: 24 hours daily; No reviews found",N/A,N/A,N/A
222516,15316 Co Rd 4201 (US-DCS-HDK-1),15316 Co Rd 4201,Pawhuska,OK,74056,United States,36.84587,-96.42317,Type 1 (J1772),3.7,1,Rivian Waypoints L2 Network,Public,Operational,2024-02-20T09:58:00Z,Access: 24 hours daily; No reviews found,N/A,N/A,N/A
242034,JLR TULSA CUSTOMER PARK,3905 S Memorial Dr,Tulsa,OK,74145,United States,36.106732,-95.885434,Type 1 (J1772),3.7,1,ChargePoint,Public,Operational,2024-02-20T09:56:00Z,Access: 24 hours daily; No reviews found,N/A,N/A,N/A
123823,Evergy - Pittsburg Service Center,1909 S Olive St,Pittsburg,KS,66762,United States,37.386638,-94.710357,Type 1 (J1772),3.7,1,N/A,Public,Operational,2024-02-20T10:00:00Z,Access: 24 hours daily; No reviews found,N/A,N/A,N/A
222593,Liberty Utilities - Baxter Springs Service Center,901 W 5th St,Baxter Springs,KS,66713,United States,37.030817,-94.746007,Type 1 (J1772),3.7,4,N/A,Public,Operational,2024-02-20T09:58:00Z,Access: 24 hours daily; No reviews found,N/A,N/A,N/A
123385,Tulsa Central Library Garage,400 Civic Center,Tulsa,OK,74103,United States,36.150263,-95.994862,Type 1 (J1772),3.7,8,N/A,Public,Operational,2024-02-20T09:57:00Z,Access: Library hours; 3 hours maximum; No reviews found,N/A,N/A,N/A
11784,Westar Energy- Independence Service Center,1101 E Main,Indepedence,KS,67301,United States,37.2233557,-95.7199528,Type 1 (J1772),N/A,1,Westar Energy ElectroGo,(Unknown),Operational,2012-07-15T08:03:00Z,No reviews found,Free,N/A,N/A
155645,Fairway Market - Francis Energy,9540 N Garnett Rd,Owasso,OK,74055,United States,36.29267992,-95.84930943,"CCS (Type 1), CHAdeMO, CCS (Type 1), CHAdeMO","50, 50, 60, 60",8,Francis Energy,Public,Operational,2024-02-11T03:46:00Z,"General: 50kW DC Fast Chargers Provided by Francis Energy, Access: Use EVGateway App to manage charging ; No reviews found",$1.00/session+$0.21/minute,N/A,N/A
222594,"Joplin, MO - South Main Street",5002 S. Main Street,Joplin,MO,64804,United States,37.033479,-94.515612,NACS / Tesla Supercharger,250,8,Tesla (Tesla-only charging),Public,Operational,2023-11-12T12:22:00Z,"General: 8 Superchargers, available 24/7, up to 250kW, Access: Located at Kum & Go #0702; No reviews found",N/A,N/A,N/A
155596,Indian Electric Cooperative - Francis Energy,"2506, US 64",Cleveland,OK,74020,United States,36.28468427,-96.44586323,"CCS (Type 1), CHAdeMO, Type 1 (J1772), CCS (Type 1), CHAdeMO","50, 50, 9.6, 60, 60",8,Francis Energy,Public,Operational,2024-02-11T00:25:00Z,"General: 50kW DC Fast Charger and Level 2 Provided by Francis Energy, Access: Use EVGateway App to manage charging; No reviews found","$1.00 to Connect, $.21 per minute",N/A,N/A
222202,La Quinta Inn & Suites,2009 S Cherokee St,Catoosa,OK,74015,United States,36.16797291,-95.76020319,Tesla (Model S/X),3.7,1,N/A,Public - Pay At Location,Operational,2024-02-20T09:57:00Z,"Access: 24 hours daily
Public - Credit card at all times; No reviews found",N/A,TRUE,FALSE
123690,Evergy - Independence Service Center,1101 E Main St,Independence,KS,67301,United States,37.223118,-95.683942,Type 1 (J1772),3.7,1,N/A,Public,Operational,2024-02-20T09:59:00Z,"Access: 24 hours daily; ""Evergy has maintained the service very well.""; ""Takes away too much money like groceries at the time right now.""; ""The company retaliates against remote workers.""",N/A,N/A,N/A
121603,Walmart 50 Vinita,268 S. 7th St.,Vinita,OK,74301,United States,36.63134308,-95.14159247,"CHAdeMO, CCS (Type 1), CCS (Type 1), CCS (Type 1)","50, 350, 150, 50",5,Electrify America,Public,Operational,2024-02-09T12:26:00Z,"Access: 24 hours daily; ""Small place, but great service!""; ""The rudest people there are normally the employees, and the app shoppers.""; ""Shelves are well stocked and alot more options to choose.""",N/A,N/A,N/A
242133,Indian Electric - Cleveland,2506 E Old Hwy,Cleveland,OK,74020,United States,36.284101,-96.446079,"Type 1 (J1772), CHAdeMO, CCS (Type 1)","3.7, 50, 50",6,EV Energy Group (FCN),Public,Operational,2024-02-20T09:57:00Z,Access: 24 hours daily; No reviews found,N/A,N/A,N/A
104951,Shangri-la Resort,57301 E Hwy 125,Monkey Island,Oklahoma,74331,United States,36.560358,-94.838866,Tesla (Model S/X),16,4,Tesla (Tesla-only charging),Public - Membership Required,Operational,2018-05-26T05:37:00Z,"General: 4 Tesla Connectors, up to 16kW.Available for customers. Please see front desk.; No reviews found",N/A,FALSE,TRUE
81580,Towneplace Suites By Marriott Joplin,4026 S Arizona Ave,Joplin,Missouri,64804,United States,37.044038,-94.481329,Tesla (Model S/X),8,3,Tesla (Tesla-only charging),"Private - For Staff, Visitors or Customers",Operational,2017-07-13T14:22:00Z,"General: 3 Tesla Connectors, up to 8kW.Available for patrons only. Please see front desk.; ""Nice room at a good rate with a really good breakfast and friendly staff.""; ""Bathroom door didn't work, had to use the closet to get out of the bathroom.""; ""Location is near a large variety of food.""",N/A,FALSE,FALSE
95208,Holiday Inn Tulsa City Center,17 W 7th St,Tulsa,Oklahoma,74119,United States,36.14957,-95.990034,Tesla (Model S/X),16,4,Tesla (Tesla-only charging),Public - Membership Required,Operational,2017-11-05T06:56:00Z,"General: 4 Tesla Connectors, up to 16kW.Available for customers. Please see front desk.; No reviews found",N/A,FALSE,TRUE
282019,Patriot Chevrolet  - Bartlesville,3800 SE Adams Rd,Bartlesville,OK,74006,United States,36.745702,-95.933788,CCS (Type 1),50,1,EV Connect,Public,Operational,2024-02-20T09:58:00Z,"""I always received friendly service from all of the service team I interact with.""; ""They are hands down a great group of people to work with.""; ""Top quality vehicles and salesman and a quick process of signing paperwork.""",N/A,N/A,N/A
79812,"Catoosa, OK",777 W. Cherokee St.,Catoosa,OK,74015-3235,United States,36.167631,-95.766044,NACS / Tesla Supercharger,150,8,Tesla (Tesla-only charging),Public - Membership Required,Operational,2023-11-06T13:31:00Z,"General: 8 Superchargers, available 24/7, up to 150kW, Date: 2018-07-22T17:35:48.507Z | User: Hypermile | Status: Charged Successfully | URL: N/A, Access: Located at the Hard Rock Hotel & Casino Tulsa; No reviews found",$0.20/min >=60kW; $0.10/min <60kW; other tariffs for older cars,FALSE,TRUE
223410,Twin Motors Ford,2501 N State St,Iola,KS,66749,United States,37.94456,-95.408094,Type 1 (J1772),3.7,1,Blink Charging,Public,Operational,2024-02-20T10:03:00Z,"Access: 24 hours daily; ""Great place people service and deals""; ""Finished up the work at my home.""; ""What a great experience my family has had with Twin Motors Ford.""",N/A,N/A,N/A
155595,Stone Gate Plaza - Francis Energy,1900 SE Washington Blvd,Bartlesville,OK,74006,United States,36.72443241,-95.93440077,"CCS (Type 1), CHAdeMO, CCS (Type 1), CCS (Type 1), CHAdeMO","200, 100, 100, 50, 50",12,Francis Energy,Public,Operational,2024-02-09T23:32:00Z,"General: 200kW HPC Chargers Provided by Francis Energy, Access: Use EVGateway App to manage charging; No reviews found","$1.00 to Connect, $.21 per minute",N/A,N/A
222179,East Village Dispensary,202 S Lansing,Tulsa,OK,74120,United States,36.157488,-95.98131,Type 1 (J1772),3.7,3,EV Energy Group (FCN),Public,Operational,2023-07-12T08:24:00Z,"Access: 24 hours daily; ""Friendliest staff in town, great prices and great quality.""; ""Great selection of products (CBD also!), and super friendly service!""; ""Love this place nice selection very nice and price is right""",N/A,N/A,N/A
159091,FFISCATOOSA HOLIDAY INN EXP,9321 N Owasso Expy,Owasso,OK,74055,United States,36.288155,-95.83561,Type 1 (J1772),3.7,2,ChargePoint,Public,Operational,2024-02-20T09:57:00Z,"Access: 24 hours daily; ""Rooms were decent price, beds were great, breakfast included in the hotel price.""; ""Room was large, bed comfy,great shower with awesome water pressure.""; ""Friendly staff, even gave us a rollaway bed for our Grandson no extra charge.""",N/A,N/A,N/A
222397,City of Pawhuska,118 W Main St,Pawhuska,OK,74056,United States,36.66274,-96.341149,Type 1 (J1772),3.7,2,EV Energy Group (FCN),Public,Operational,2023-07-12T08:25:00Z,Access: 24 hours daily; No reviews found,N/A,N/A,N/A
123555,Doenges Ford Lincoln,1901 SE Washington Blvd,Bartlesville,OK,74006,United States,36.72389493,-95.93594345,Type 1 (J1772),3,1,N/A,Public - Notice Required,N/A,2019-12-24T09:13:00Z,"Access: Dealership business hours
TEMPORARILY UNAVAILABLE (Public - Call ahead); No reviews found",N/A,FALSE,FALSE
222102,Audi Tulsa,4208 S Memorial Dr,Tulsa,OK,74145,United States,36.10156032,-95.88721101,Type 1 (J1772),3.7,4,N/A,Public - Pay At Location,Operational,2024-02-20T09:56:00Z,"Access: 24 hours daily
Public - Credit card at all times; No reviews found",N/A,TRUE,FALSE
95701,TownePlace Suites by Marriott Joplin,4026 S. Arizona Ave.,Joplin,MO,64804,United States,37.0440383,-94.4813285,Type 1 (J1772),8,1,(Business Owner at Location),Public - Pay At Location,Operational,2017-11-21T14:22:00Z,"General: Guests of our hotel may charge for no additional fee.  Visitors pay a one time fee of $10.00 per charge., Access: Tesla and generic charging stations available.; ""Nice room at a good rate with a really good breakfast and friendly staff.""; ""Bathroom door didn't work, had to use the closet to get out of the bathroom.""; ""Location is near a large variety of food.""",$10.00/session; Hotel guests at zero additional fee,TRUE,FALSE
109358,KC Auto Hotel,313 S Cincinnati Ave,Tulsa,Oklahoma,74103,United States,36.153979,-95.988095,Tesla (Model S/X),13,3,Tesla (Tesla-only charging),Public - Membership Required,Operational,2018-10-11T14:36:00Z,"General: 3 Tesla Connectors, up to 13kW.Available to the public. Self park.; ""Highly recommend & will return.""; ""Elevator is a little slow.""",N/A,FALSE,TRUE
140453,Farmers Insurance,1546 S Harvard Ave,Tulsa,OK,74112,United States,36.138879,-95.940711,Type 1 (J1772),3.7,1,N/A,Public,Operational,2020-06-26T02:58:00Z,Access: 24 hours daily; No reviews found,N/A,N/A,N/A
222422,Patriot Buick GMC - Bartlesville,2001 SE WASHINGTON BLVD,BARTLESVILLE,OK,74006,United States,36.722025,-95.936554,CCS (Type 1),50,1,EV Connect,Public,Operational,2024-02-20T09:58:00Z,"""Jennifer and the rest of the staff did amazing and treated us like family.""; ""Best prices, service, and sales.""; ""This is the rudest group of people I have ever dealt with ..""",N/A,N/A,N/A
262557,MONUMENTCHARGER CT4K MONUMENT,4210 S Memorial Dr,Tulsa,OK,74145,United States,36.100514,-95.887978,Type 1 (J1772),3.7,2,ChargePoint,Public,Operational,2024-02-20T09:56:00Z,"Access: 24 hours daily; ""Great service, great people, good prices, great after the sale service.""; ""Great customer service Amazing reliable cars Great deals Good snacks and drinks""; ""Al Hufford has been the nicest service consultant to work with over the years.""",N/A,N/A,N/A
294042,Jay Hatfield Chevrolet Buick Columbus,200 S E Ave,Columbus,KS,66725,United States,37.168569,-94.831517,CCS (Type 1),50,1,EV Connect,Public,Operational,2024-02-20T09:58:00Z,No reviews found,N/A,N/A,N/A
159084,FFISCATOOSA FAIRFIELD INN,200 Elliott Ln,Catoosa,OK,74015,United States,36.16614,-95.7571,Type 1 (J1772),3.7,2,ChargePoint,Public,Operational,2024-02-20T09:57:00Z,"Access: 24 hours daily; ""Room was super clean, breakfast was good, and the staff was friendly.""; ""Great location with plenty of food and drink options nearby.""; ""You just run in to rude service people sometimes.""",N/A,N/A,N/A
106508,Hampton Inn & Suites Pittsburg Kansas Crossing,1285 S Hwy 69,Pittsburg,Kansas,66762,United States,37.343055,-94.709305,Tesla (Model S/X),16,2,Tesla (Tesla-only charging),Public - Membership Required,Operational,2018-06-23T05:41:00Z,"General: 2 Tesla Connectors, up to 16kW.Available for customers. Please see front desk.; No reviews found",N/A,FALSE,TRUE
282036,Discount Express,3931 E 7th St,Joplin,MO,64801,United States,37.0843497,-94.4597209,Type 1 (J1772),3.7,4,AmpUp,Public,Operational,2024-02-20T09:58:00Z,"Access: Contact site for information; ""Clean and friendly employees""; ""I was wearing a crop top and matching pants!!!""; ""Mayin is a great salesman.""",N/A,N/A,N/A
222409,Bartlesville Chrysler Dodge Ram Jeep,3250 SE Washington Blvd,Bartlesville,OK,74006,United States,36.70024286,-95.93396416,Type 1 (J1772),3.7,1,N/A,Public - Pay At Location,Operational,2024-02-20T09:58:00Z,"Access: 24 hours daily
Public - Credit card at all times; ""Management team and the owner were very down to earth and personable.""; ""Manager is able to hear the noise but not the service people.""; ""My husband and I were shopping for a family vehicle all weekend.""",N/A,TRUE,FALSE
94273,North Garage,20 E 2nd St,Tulsa,OK,74103,United States,36.154339,-95.990117,"Type 1 (J1772), Type 1 (J1772)","3.7, 3",7,N/A,Public,Operational,2024-02-20T09:57:00Z,Access: Garage business hours; No reviews found,N/A,N/A,N/A
4619,Frank Fletcher Nissan,2327 S. Range Line Rd.,Joplin,MO,64804,United States,37.06505725,-94.47729349,Type 1 (J1772),N/A,1,(Unknown Operator),Public,Operational,2011-06-09T20:28:00Z,"""Service rep answered questions about vehicle and upcoming service needs.""; ""I had a little bit of a wait but the staff was so super friendly.""; ""I thank the service people and manager.""",N/A,N/A,N/A
123427,Tulsa Zoo,6421 E 36th St N,Tulsa,OK,74115,United States,36.21362483,-95.90466803,Type 1 (J1772),3.7,4,N/A,Public,Operational,2024-02-20T09:57:00Z,"Access: 9am-5pm daily; for zoo patron use only; ""Zoo staff were excellent staff gave her cpr and called emsa.""; ""Not overpriced, you can bring food and drinks.""; ""Needed more Halloween decorations, no stops but three this year""",N/A,N/A,N/A
123661,Liberty Utilities - Missouri Southern State University,700 N Duquesne Rd,Joplin,MO,64801,United States,37.095358,-94.458738,Type 1 (J1772),3.7,2,N/A,Public,Operational,2024-02-20T09:58:00Z,Access: 24 hours daily; No reviews found,N/A,N/A,N/A
222191,Glo Best Western Tulsa,18705 E Admiral Pl,Catoosa,OK,74015,United States,36.16134858,-95.76792645,Tesla (Model S/X),3.7,1,N/A,Public - Pay At Location,Operational,2024-02-20T09:57:00Z,"Access: 24 hours daily
Public - Credit card at all times; No reviews found",N/A,TRUE,FALSE
242136,Fred Taylor Furniture - Tesla Destination,118 S Mill St,Pryor,OK,74361,United States,36.305126,-95.319671,Tesla (Model S/X),3.7,1,Tesla (Tesla-only charging),Public,Operational,2024-02-20T09:57:00Z,"""Always a relaxing atmosphere, super friendly, no pushy service.""; ""Good selection of furniture with great prices.""; ""Great products and awesome customer service.""",N/A,N/A,N/A
8176,2327 S Range Line Rd,2327 S Range Line Rd,Joplin,MO,64804,United States,37.06473,-94.47714,Type 1 (J1772),N/A,0,AeroVironment,N/A,Unknown,2017-11-04T14:04:00Z,No reviews found,N/A,N/A,N/A
222796,EVERGY @PRSONCITY-436A,1600 Main St @ ParsonsCityHall,Parsons,KS,67357,United States,37.34045498,-95.25747736,"Type 1 (J1772), CCS (Type 1)","3.7, 50",3,ChargePoint,Public,Operational,2023-06-01T07:24:00Z,"General: This is a Type (Level) 3 DC fast charger, Access: 24 hours daily; No reviews found",N/A,N/A,N/A
155594,First Assembly Church - Francis Energy,1815 E Steve Owens,Miami,OK,74354,United States,36.87166643,-94.85816921,"CCS (Type 1), CHAdeMO","200, 100",4,Francis Energy,Public,Operational,2024-02-09T23:28:00Z,"General: 200kW HPC Chargers Provided by Francis Energy, Access: Use EVGateway App to manage charging; ""Great place to visit and worship God""; ""I was only greeted by a lady that handed me a can of soda.""; ""I bet we had cub scouts today so its pizza!""","$1.00 to Connect, $0.21 per minute",N/A,N/A
155577,Boston Avenue United Methodist Church - Francis Energy,1301 S Boston Ave,Tulsa,OK,74119,United States,36.14526738,-95.98386941,"CCS (Type 1), CHAdeMO, CCS (Type 1)","200, 100, 100",8,Francis Energy,Public,Operational,2024-02-10T13:48:00Z,"General: 200kW HPC Chargers Provided by Francis Energy, Access: Use EVGateway App to manage charging; ""I love the inclusive, laid back, family friendly 13th Street Worship service!""; ""Very 20s art deco- beautiful space and staff is very friendly and welcoming.""; ""Nice people and a good place to worship""","$1.00 to Connect, $0.32 per minute",N/A,N/A
276086,Tulsa,3303 North Sheridan Road,Tulsa,OK,74115,United States,36.20246,-95.90399,Type 1 (J1772),3.7,2,Blink Charging,Public,Operational,2024-02-20T09:57:00Z,Access: 24 hours daily; No reviews found,N/A,N/A,N/A
140452,Keystone Chevrolet,8700 E Charles Page Blvd,Sand Springs,OK,74063,United States,36.137733,-96.094646,Type 1 (J1772),3.7,1,N/A,Private - Restricted Access,Operational,2024-02-20T09:56:00Z,Access: Dealership business hours; for service use only; No reviews found,N/A,N/A,TRUE
242156,Indian Electric - Fairfax,601 S Main St,Fairfax,OK,74637,United States,36.564777,-96.705237,"Type 1 (J1772), CHAdeMO, CCS (Type 1)","3.7, 50, 50",4,EV Energy Group (FCN),Public,Operational,2024-02-20T09:57:00Z,Access: 24 hours daily; No reviews found,N/A,N/A,N/A
123800,Evergy - Parsons Service Center,2605 Flynn Dr,Parsons,KS,67357,United States,37.373189,-95.262514,Type 1 (J1772),3.7,1,N/A,Private - Restricted Access,Operational,2024-02-20T09:59:00Z,Access: Fleet use only; No reviews found,N/A,N/A,TRUE
222602,SERVICE GARAGE FRONT CHARGER,3111 E 32nd St,Joplin,MO,64804,United States,37.057199,-94.47647,"CHAdeMO, CCS (Type 1)","50, 50",2,ChargePoint,Public,Operational,2024-02-20T09:58:00Z,Access: 24 hours daily; No reviews found,N/A,N/A,N/A
294038,LIBERTY EMPIRE NEWJOPLINLIB,1901 E 20th St,Joplin,MO,64804,United States,37.070663,-94.494052,Type 1 (J1772),3.7,2,ChargePoint,Public,Operational,2024-02-20T09:58:00Z,Access: 24 hours daily; No reviews found,N/A,N/A,N/A
155578,HSB Properties - Francis Energy,South Adams Road,Sand Springs,OK,74127,United States,36.13735282,-96.10084859,"CCS (Type 1), CHAdeMO, CCS (Type 1), CHAdeMO","200, 100, 60, 60",12,Francis Energy,Public,Operational,2024-02-11T00:27:00Z,"General: 200kW HPC Chargers Provided by Francis Energy, Access: Use EVGateway App to manage charging; Error occurred","$1.00 to Connect, $0.21 per minute",N/A,N/A
155649,Indian Electric Cooperative,601 S Main St,Fairfax,OK,N/A,United States,36.5632984,-96.70465997,"CCS (Type 1), CHAdeMO, Type 1 (J1772)","50, 50, 9.6",4,Francis Energy,Public,Operational,2024-04-16T14:48:00Z,"General: 50kW DC Fast Charger and Level 2 Provided by Francis Energy, Access: Use EVGateway App to manage charging; Error occurred",$1.00/session+$0.21/minute,N/A,N/A
123392,100 West Garage,100 W 1st St,Tulsa,OK,74103,United States,36.15384,-95.993569,Type 1 (J1772),3.7,2,N/A,Public,Operational,2024-02-20T09:57:00Z,Access: 24 hours daily; No reviews found,N/A,N/A,N/A
222253,Holiday Inn Express,271 US-69,Chouteau,OK,74337,United States,36.23216652,-95.33777807,Tesla (Model S/X),3.7,2,N/A,Public - Pay At Location,Operational,2024-02-20T09:57:00Z,"Access: 24 hours daily
Public - Credit card at all times; No reviews found",N/A,TRUE,FALSE
276175,Tom Davis Auto Group,2831 N 16th St,Parsons,KS,67357,United States,37.368308,-95.257589,CCS (Type 1),50,1,EV Connect,"Private - For Staff, Visitors or Customers",Temporarily Unavailable,2024-02-19T09:38:00Z,No reviews found,N/A,FALSE,FALSE
155641,Heller Investments - Francis Energy,3515 East 31st Street,Tulsa,OK,74135,United States,36.11902816,-95.93728428,"CCS (Type 1), CHAdeMO","50, 50",4,Francis Energy,Public,Operational,2024-02-10T01:02:00Z,"General: 50kW DC Fast Chargers Provided by Francis Energy, Access: Use EVGateway App to manage charging ; No reviews found",$1.00/session+$0.21/minute,N/A,N/A
243811,First Assembly - Miami,1815 E Steve Owens,Miami,OK,74354,United States,36.87153,-94.857931,"CHAdeMO, CCS (Type 1)","50, 50",2,EV Energy Group (FCN),Public,Operational,2024-02-20T09:58:00Z,Access: 24 hours daily; No reviews found,N/A,N/A,N/A
67099,Fred Taylor Furniture - Tesla,118 S Mill St,Pryor,OK,74361,United States,36.3047128,-95.3199918,Tesla (Model S/X),16,1,Tesla (Tesla-only charging),Public,Operational,2017-01-26T03:05:00Z,Access: 24 hours daily; for Tesla use only; No reviews found,Free,N/A,N/A
8205,800 W Queens St,800 W Queens St,Broken Arrow,OK,74012,United States,36.07125,-95.80098,Type 1 (J1772),N/A,0,AeroVironment,N/A,Unknown,2017-11-04T14:04:00Z,No reviews found,N/A,N/A,N/A
8206,9898 S Memorial Dr,9898 S Memorial Dr,Tulsa,OK,74133,United States,36.02144,-95.88768,Type 1 (J1772),N/A,0,AeroVironment,N/A,Unknown,2017-11-04T14:04:00Z,No reviews found,N/A,N/A,N/A
281990,PSO EV PSO-GO-4,708 S Detroit Ave,Tulsa,OK,74119,United States,36.151201,-95.986427,Type 1 (J1772),3.7,1,ChargePoint,Public,Operational,2023-12-04T03:37:00Z,"Access: 24 hours daily; ""Yea customer service here is def not about the customer sadly.""; ""I will I can give this unprofessional people 0 rating .""; ""Now, I'm just eating breakfast, watching the news.""",N/A,N/A,N/A
29757,1550 Oxen Lane,1550 Oxen Lane,Burlington,KS,66839,United States,38.241652,-95.687013,Type 1 (J1772),N/A,0,AeroVironment,Public,Unknown,2017-11-04T14:04:00Z,No reviews found,N/A,N/A,N/A
159075,OSU-CHS,1111 W 17th St,Tulsa,OK,74107,United States,36.137943,-96.006169,Type 1 (J1772),3.7,4,ChargePoint,Public,Operational,2020-06-26T02:58:00Z,Access: 24 hours daily; No reviews found,N/A,N/A,N/A
222605,LIBERTY EMPIRE STATELINE,319 N Broadway,Joplin,MO,66762,United States,37.06772,-94.61397,Type 1 (J1772),3.7,2,ChargePoint,Public,Operational,2023-09-28T04:36:00Z,Access: 24 hours daily; No reviews found,N/A,N/A,N/A
222601,LIBERTY EMPIRE KODIAKL2A,3400 Kodiak Rd,Joplin,MO,64804,United States,37.052223,-94.406456,Type 1 (J1772),3.7,2,ChargePoint,Public,Operational,2024-02-20T09:58:00Z,Access: 24 hours daily; No reviews found,N/A,N/A,N/A
282112,Jay Hatfield Chevrolet Buick GMC,1401 W Beech St,Chanute,KS,66720,United States,37.688116,-95.471678,"Type 1 (J1772), CCS (Type 1)","3.7, 50",2,EV Connect,Public,Operational,2024-02-20T10:01:00Z,"""Highest trade-in offer, best price on the make/ model , and personable service.""; ""I have no idea what their prices are like or what their service offerings are.""; ""Friendly, fast auto service, combined with a great selection of used cars.""",N/A,N/A,N/A
222174,MPP STATION 1,423 S Boulder Ave,Tulsa,OK,74103,United States,36.15203,-95.99087,Type 1 (J1772),3.7,2,ChargePoint,Public,Operational,2024-02-20T09:57:00Z,Access: 24 hours daily; No reviews found,N/A,N/A,N/A
222087,KIA EV UD EV 2,4747 S Yale Ave,Tulsa,OK,74135,United States,36.092763,-95.921489,Type 1 (J1772),3.7,1,ChargePoint,Public,Operational,2024-02-20T09:56:00Z,"Access: 24 hours daily; ""Best prices, warranty, quality and staff!""; ""I was lied to by the finance manager, the sales manager and our salesman.""; ""From Service, to sales, to finance, my experience was GREAT.""",N/A,N/A,N/A
244645,NPS MWRO: FOSC - Maintenance Facility,101 Old Fort Blvd,Fort Scott,KS,66701,United States,37.842571,-94.70521,NEMA 14-50,1.9,10,N/A,Private - Restricted Access,Operational,2024-02-20T10:02:00Z,"Access: 24 hours daily; Drivers must bring their own J1772 cordset for Level 1 charging; ""The staff inside the bookstore were super helpful.""; ""Beautiful setting & historical place to visit with the whole family.""; ""Great experience that explains the area's history.""",N/A,N/A,TRUE
155543,Riverwalk Crossing - Francis Energy,300 Riverwalk Terrace,Jenks,OK,74037,United States,36.02824894,-95.96131955,"CCS (Type 1), CHAdeMO, Type 1 (J1772)","200, 100, 9.6",6,Francis Energy,Public,Operational,2024-02-11T14:26:00Z,"General: 200kW HPC Chargers and Level 2 Provided by Francis Energy, Access: Use EVGateway App to manage charging; No reviews found","$1.00 to Connect, $.21 per minute",N/A,N/A
294036,"Flying J Travel Center #669 Joplin, MO",11570 State Hwy FF,Joplin,MO,64804,United States,37.055441,-94.429973,CCS (Type 1),50,4,eVgo Network,Public,Operational,2024-11-28T09:30:00Z,Access: 24 hours daily; No reviews found,N/A,N/A,N/A
159104,Ponca City Library,515 E Grand Ave,Ponca City,OK,74601,United States,36.704221,-97.078141,"Type 1 (J1772), CHAdeMO, CCS (Type 1)","3.7, 50, 50",4,EV Energy Group (FCN),Public,Temporarily Unavailable,2024-02-20T09:58:00Z,"Access: 24 hours daily; ""There is a charging station in the multi-media room for a variety of devices.""; ""The asian art is beautiful and the staff is super friendly and helpful.""; ""Relaxing environment!""",N/A,N/A,N/A
222604,Big Apple Travel Center Joplin,2100 S Prigmor Ave,Joplin,MO,64804,United States,37.06708243,-94.4054567,Type 1 (J1772),3.7,5,N/A,Public - Pay At Location,Operational,2024-02-20T09:58:00Z,"Access: 24 hours daily
Public - Credit card at all times; ""Good food, good prices, friendly staff and clean facility and parking lot.""; ""Great people and great place to stop for the night and have a relaxing shower.""; ""I enjoyed an Indian dish of Lamb curry.""",N/A,TRUE,FALSE
155576,Target - Francis Energy,10019 S Memorial Dr,Knollwood Estates,OK,74133,United States,36.01816873,-95.88485717,"CCS (Type 1), CHAdeMO, CCS (Type 1), CCS (Type 1), CHAdeMO","200, 100, 100, 60, 60",12,Francis Energy,Public,Operational,2024-02-11T14:33:00Z,General: Use EVGateway App to manage charging; No reviews found,"$1.00 to Connect, $0.21 per minute",N/A,N/A
222251,Hampton Inn & Suites Pryor,431 Midamerica Dr,Pryor,OK,74361,United States,36.22936483,-95.33910751,Tesla (Model S/X),3.7,2,N/A,Public - Pay At Location,Operational,2024-02-20T09:57:00Z,"Access: 24 hours daily
Public - Credit card at all times; No reviews found",N/A,TRUE,FALSE
222420,OMPACHARGER PCRP,1501 N Union St,Ponca City,OK,74601,United States,36.720747,-97.085743,Type 1 (J1772),3.7,2,ChargePoint,Public,Operational,2023-03-07T05:14:00Z,Access: 24 hours daily; No reviews found,N/A,N/A,N/A
140442,Gathering Place,2650 S John Williams Way E,Tulsa,OK,74114,United States,36.1223882,-95.9846093,"Type 1 (J1772), CCS (Type 1)","3.7, 40",2,N/A,Public,Operational,2023-07-04T08:55:00Z,"Access: 24 hours daily; ""Jazz music skate park riding bikes to skating great place to take family""; ""They serve beer and have lighter options other than fried foods.""; ""A wonderful indoor area and family friendly prices for refreshing treats.""",N/A,N/A,N/A
222540,Hampton Inn,115 Deacon Turner Rd,Miami,OK,74354,United States,36.87216735,-94.85430299,Tesla (Model S/X),3.7,2,N/A,Public - Pay At Location,Operational,2024-02-20T09:58:00Z,"Access: 24 hours daily
Public - Credit card at all times; ""Very friendly and helpful staff nice clean rooms good variety of breakfast food""; ""Great staff, clean facility, comfortable bed/room""; ""Love this place, and super friendly people, manager Desiree was great!""",N/A,TRUE,FALSE
155650,Ponca City Development Authority - Francis Energy,200 South 4th Street,Ponca City,OK,74601,United States,36.70235027,-97.07966806,"CCS (Type 1), CHAdeMO","50, 50",4,Francis Energy,Public,Planned For Future Date,2024-02-10T00:58:00Z,"General: 50kW DC Fast Chargers Provided by Francis Energy, Access: Use EVGateway App to manage charging ; No reviews found",$1.00/session+$0.21/minute,N/A,N/A
244632,Sleep Inn & Suites Hotel - Fort Scott,302 E Wall St,Fort Scott,KS,66701,United States,37.841327,-94.703425,Type 1 (J1772),3.7,2,EV Connect,Public,Operational,2024-02-20T10:02:00Z,No reviews found,N/A,N/A,N/A
276061,Glover Chevrolet West LLC,707 West 51st Street,Tulsa,OK,74107,United States,36.09166846,-95.99726179,Type 1 (J1772),3.7,1,Blink Charging,Public,Operational,2024-02-20T09:56:00Z,"Access: 24 hours daily; ""Decaf coffee, donuts, friendly service, good price, clean roomy waiting room""; ""Filled at home here no pressure sales I enjoyed my experience here""; ""Great Service and had my car service done quickly.""",N/A,N/A,N/A
242068,BANK OF AMERICA PFP (BOA) CP#2,15 W 6th St,Tulsa,OK,74119,United States,36.150684,-95.99064,Type 1 (J1772),3.7,2,ChargePoint,Public,Operational,2024-02-20T09:57:00Z,Access: 24 hours daily; No reviews found,N/A,N/A,N/A
155635,Group 101 Co - Francis Energy,10106 S Sheridan Rd,Tulsa,OK,74133,United States,36.01703657,-95.90438433,"CCS (Type 1), CHAdeMO","50, 50",8,Francis Energy,Public,Not Operational,2024-02-11T14:28:00Z,"General: 50kW DC Fast Chargers Provided by Francis Energy, Access: Use EVGateway App to manage charging ; No reviews found",$1.00/session+$0.21/minute,N/A,N/A
276062,KIA EV KIA EV/UD EV 3,4747 S Yale Ave,Tulsa,OK,74135,United States,36.092499,-95.920793,CCS (Type 1),50,1,ChargePoint,Public,Operational,2024-02-20T09:56:00Z,"Access: 24 hours daily; ""Best prices, warranty, quality and staff!""; ""I was lied to by the finance manager, the sales manager and our salesman.""; ""From Service, to sales, to finance, my experience was GREAT.""",N/A,N/A,N/A
155587,Walmart - Francis Energy,300 South Dewey Avenue,Wagoner,OK,74467,United States,35.9579422,-95.39747739,"CCS (Type 1), CHAdeMO, CCS (Type 1), CHAdeMO","200, 100, 60, 60",12,Francis Energy,Public,Operational,2024-02-11T03:43:00Z,"General: 200kW HPC Chargers Provided by Francis Energy, Access: Use EVGateway App to manage charging; No reviews found","$1.00 to Connect, $0.21 per minute",N/A,N/A
155640,B&H Construction,5500 West 55th Street,Tulsa,OK,74107,United States,36.08206919,-96.05373156,"CCS (Type 1), CHAdeMO","50, 50",4,EV Connect,Public,Operational,2020-04-21T18:04:00Z,"General: Two 50kW DC Fast Chargers provided by B&H, Access: Tesla CHAdeMO adapter and bathroom in main office during business hours Mon-Fri 8am to 5pm; No reviews found",per EV Connect App,N/A,N/A
140462,BANK OF AMERICA 4TH & DENVER 1,416 S Cheyenne Ave,Tulsa,OK,74103,United States,36.151173,-95.993515,Type 1 (J1772),3.7,2,ChargePoint,Public,Operational,2024-02-20T09:57:00Z,Access: 24 hours daily; No reviews found,N/A,N/A,N/A
13761,11116 South Memorial,11116 South Memorial,Bixby,OK,74008,United States,36.00034,-95.88838,Type 1 (J1772),N/A,0,BeCharged,Public,Unknown,2017-11-04T14:04:00Z,No reviews found,N/A,N/A,N/A
276060,Jim Glover Chevrolet,707 W 51st St,Tulsa,OK,74107,United States,36.090971,-95.997619,CCS (Type 1),50,2,EV Connect,Public,Operational,2024-02-20T09:56:00Z,"""Decaf coffee, donuts, friendly service, good price, clean roomy waiting room""; ""Filled at home here no pressure sales I enjoyed my experience here""; ""Great Service and had my car service done quickly.""",N/A,N/A,N/A
11786,Westar Energy- El Dorado Service Center,700 N Star,El Dorado,KS,67042,United States,37.824802,-96.8525267,Type 1 (J1772),N/A,1,Westar Energy ElectroGo,(Unknown),Operational,2012-07-15T08:03:00Z,"""Friendly staff and great customer service""; ""Work with the residents not a huge company with money.""; ""No willingness to work with people.""",Free,N/A,N/A
140596,HOLIDAYINNMIAMI FKLKY,509 Henley St,Miami,OK,74354,United States,36.868143,-94.853353,Type 1 (J1772),3.7,2,ChargePoint,Public,Operational,2024-02-20T09:58:00Z,"Access: 24 hours daily; ""Friendly staff great price service dog friendly""; ""She quickly gave us room keys without even checking the identification.""; ""The provided shampoo, conditioner, and body gel is good quality.""",N/A,N/A,N/A
123419,Tulsa International Airport,7777 Airport Dr,Tulsa,OK,74115,United States,36.1893196,-95.892514,"Unknown, CHAdeMO, CCS (Type 1)","1.9, 40, 40",4,N/A,Public,Operational,2023-07-04T08:56:00Z,"Access: 24 hours daily; pay parking; ""Easy access to rental cars, short delay through TSA, good food and drinks.""; ""The Tulsa staff had coffee, water, and snacks while we waited.""; ""Easy to navigate layout, limited shops and food choices, clean facilities.""",N/A,N/A,N/A
155634,Kings Landing Shopping Complex - Francis Energy,9904 Riverside Pkwy,Tulsa,OK,74137,United States,36.02068351,-95.94985817,"CCS (Type 1), CHAdeMO","50, 50",4,Francis Energy,Public,Not Operational,2024-02-10T01:05:00Z,"General: 50kW DC Fast Chargers Provided by Francis Energy, Access: Use EVGateway App to manage charging; ""I had Cajun pasta...spicy & full of flavor.""; ""A good selection of nice dining options.""; ""Nice area.. a bit crowded at times but overall a nice place..""","$1.00 to Connect, $0.21 per minute",N/A,N/A
140426,Tandy Family YMCA,5005 S Darlington Ave,Tulsa,OK,74135,United States,36.09133781,-95.91663147,"CHAdeMO, CCS (Type 1)","50, 50",4,N/A,Public,Operational,2020-02-02T18:48:00Z,"Access: 24 hours daily; ""Absolutely the best place to workout and feel comfortable in own skin.""; ""The employees provide friendly service and the facility is clean and beautiful.""; ""That overcharged me 30 bucks and blew my budget.""",N/A,N/A,N/A
269244,Store 290 Joplin - 2101 S. Prigmore &I44,2101 S Prigmore,Joplin,MO,64804,United States,37.067284,-94.40366,CCS (Type 1),50,2,EV Connect,Public,Temporarily Unavailable,2024-02-20T09:58:00Z,No reviews found,N/A,N/A,N/A
123355,JLR TULSA,3905 S Memorial Dr,Tulsa,OK,74145,United States,36.107036,-95.885946,Type 1 (J1772),3,2,ChargePoint,Public,N/A,2019-04-06T05:03:00Z,Access: 24 hours daily; No reviews found,N/A,N/A,N/A
12958,700 N Star St,700 N Star St,El Dorado,KS,67402,United States,37.82505,-96.85237,Type 1 (J1772),N/A,0,AeroVironment,Public,Unknown,2017-11-04T14:04:00Z,No reviews found,N/A,N/A,N/A
276075,Price Family Properties,201 W 5th St,Tulsa,OK,73120,United States,36.15099,-95.99299,Type 1 (J1772),3.7,8,EV Energy Group (FCN),Public,Operational,2023-09-28T04:34:00Z,"Access: 24 hours daily; Also accepts payment through Francis Energy App; ""Their customer service is top notch!""; ""My experience was beautiful, which I never thought I'd say about a build out.""",N/A,N/A,N/A
27282,Reasor's Foods,11116 S Memorial Dr,Bixby,OK,74008,United States,36.00035,-95.889069,Type 1 (J1772),3.7,1,N/A,Public,Operational,2024-02-20T09:56:00Z,"Date: 2015-09-26T17:57:04.417Z | User: RunningRandy | Comment: On side of store with green parking space. 30 amps at 220. Between store and Lowes | Status: Charged Successfully | URL: N/A, Access: 24 hours daily; ""This place is super clean and well-stocked with a wide variety to choose from.""; ""They still have a good selection of brands and excellent service.""; ""If you want drinks and common food items it is cheaper to shop at Walmart.""",N/A,N/A,N/A
124187,Evergy - Humboldt Service Center,1318 Signor,Humboldt,KS,66748,United States,37.817103,-95.429144,Type 1 (J1772),3.7,1,N/A,Public,Operational,2024-02-20T10:02:00Z,Access: 24 hours daily; No reviews found,N/A,N/A,N/A
281980,Tandy YMCA,5005 S Darlington Ave,Tulsa,OK,74135,United States,36.090751,-95.916081,"CHAdeMO, CCS (Type 1)","50, 50",4,Francis Energy,Public,Operational,2024-02-10T13:54:00Z,"Access: 24 hours daily; ""Absolutely the best place to workout and feel comfortable in own skin.""; ""The employees provide friendly service and the facility is clean and beautiful.""; ""That overcharged me 30 bucks and blew my budget.""",N/A,N/A,N/A
293979,"Target T2422 (Broken Arrow, OK)",1150 E Hillside Drive,Broken Arrow,OK,74012,United States,36.06593,-95.77624,CCS (Type 1),350,6,Electrify America,Public,Operational,2024-04-16T12:21:00Z,"Access: 24 hours daily; ""Good selection, friendly staff, not-so-great customer service.""; ""I wish Target would open more locations, even ones that service a neighborhood.""; ""The prices are competitive and the store brand is of good quality.""",N/A,N/A,N/A
159088,Fine Airport Parking,2010 N Memorial Dr,Tulsa,OK,74115,United States,36.1842,-95.88777,"Type 1 (J1772), CHAdeMO, CCS (Type 1), CCS (Type 1), CHAdeMO","9.6, 50, 50, 60, 60",28,Francis Energy,Public,Operational,2024-02-11T14:47:00Z,Access: 24 hours daily; No reviews found,N/A,N/A,N/A
222495,LIBERTY EMPIRE NEOSHOSVCCNTR,1501 Industrial Dr,Neosho,MO,64850,United States,36.83604,-94.38874,Type 1 (J1772),3.7,2,ChargePoint,Public,Operational,2024-02-20T09:58:00Z,"Access: 24 hours daily; ""Prices to high and they aren't good to their customers.""; ""She then recommended I go ahead and pay money on my account.""; ""I've not even received a Bill for my June usage July Bill.""",N/A,N/A,N/A
293990,Don Thornton Cadillac,3939 S. MEMORIAL DRIVE,TULSA,OK,74145,United States,36.105739,-95.88568,CCS (Type 1),50,1,EV Connect,Public,Operational,2024-02-20T09:56:00Z,"""Great place great people and good service and sales Center.""; ""Cathy quickly gave me the price of the car and answered all my questions.""; ""Car wash and vacuum all performed while you wait in comfortable waiting area.""",N/A,N/A,N/A
244523,EVERGY @KTA SVC -404B,7225 Kansas Turnpike @ KS Turnpike - Towanda,El Dorado OCL,KS,67042,United States,37.766308,-96.98113,"CHAdeMO, CCS (Type 1)","50, 50",2,ChargePoint,Public,Operational,2024-02-20T10:02:00Z,Access: 24 hours daily; No reviews found,N/A,N/A,N/A
123580,LIBERTY EMPIRE CROWDERFARBER1,601 Laclede,Neosho,MO,64850,United States,36.814568,-94.369289,Type 1 (J1772),3.7,2,ChargePoint,Public,Operational,2024-02-20T09:58:00Z,Access: 24 hours daily; No reviews found,N/A,N/A,N/A
123336,Riverside Ford of Tulsa,745 W 51st St,Tulsa,OK,74107,United States,36.090597,-95.999291,Type 1 (J1772),3.7,1,N/A,Public - Notice Required,Operational,2024-02-20T09:56:00Z,"Access: Dealership business hours; locked lot
Public - Call ahead; ""Amazing service, extremely helpful when ordering parts and setting up service.""; ""No games... great price... salesman and manager works for the customer..""; ""Highly recommend checking out riverside ford great people great experience!!""",N/A,FALSE,FALSE
123651,Liberty Utilities - Joplin Public Library,1901 E 20th St,Joplin,MO,64801,United States,37.069544,-94.494073,Type 1 (J1772),3.7,1,N/A,Public,N/A,2020-06-26T02:59:00Z,Access: 24 hours daily; No reviews found,N/A,N/A,N/A
276099,Jim Glover CDJR LLC,10505 North Owasso Expressway,Owasso,OK,74055,United States,36.30505332,-95.81995751,Type 1 (J1772),3.7,1,Blink Charging,Public,Operational,2024-02-20T09:57:00Z,"Access: 24 hours daily; ""Great place to do business from buying a car to getting service work done.""; ""Sales was a good experience, but service is always backed up.""; ""They do offer a shuttle service and the drivers are just the nicest folks.""",N/A,N/A,N/A
281995,Tulsa Warehouse,"1660 N Mingo Road, Suite A",Tulsa,OK,74116,United States,36.1811337,-95.8700937,"CCS (Type 1), Type 1 (J1772)","400, 19.2",3,Francis Energy,Public,Operational,2024-04-16T14:56:00Z,Access: 24 hours daily; No reviews found,N/A,N/A,N/A
155637,Lynn Lane Plaza - Francis Energy,1126 North 9th Street,Broken Arrow,OK,74012,United States,36.0631415,-95.7807068,"CCS (Type 1), CHAdeMO","50, 50",8,Francis Energy,Public,Operational,2024-02-10T12:56:00Z,"General: 50kW DC Fast Chargers Provided by Francis Energy, Access: Use EVGateway App to manage charging ; No reviews found",$1.00/session+$0.21/minute,N/A,N/A
222106,Volvo Cars of Tulsa,4111 S Memorial Dr,Tulsa,OK,74145,United States,36.10394881,-95.88574359,Type 1 (J1772),3.7,1,N/A,Public - Pay At Location,Operational,2024-02-20T09:56:00Z,"Access: 24 hours daily
Public - Credit card at all times; ""Great service and quality sales people and sales manager""; ""The attention to detail and explanation of work needed is easily understood.""; ""Clean, well kept lounge to wait for the complimentary shuttle.""",N/A,TRUE,FALSE
242028,RESIDENCEINNTUL RESIDENCE,4580 E 50th St,Tulsa,OK,74135,United States,36.091686,-95.9241,Type 1 (J1772),3.7,2,ChargePoint,Public,Temporarily Unavailable,2024-02-20T09:56:00Z,"Access: 24 hours daily; ""Awesome breakfastðŸ³â˜•ðŸž The staff was so nice and they offered dog ðŸ•treats .""; ""We stayed at this hotel as a family for my husband's work.""; ""Excellent Service Excellent Quality Excellent Customer Service""",N/A,N/A,N/A
222642,CWEP EV 1 6TH & MAIN,111R E 6th St,Carthage,MO,64836,United States,37.174778,-94.310811,Type 1 (J1772),3.7,2,ChargePoint,Public,Operational,2024-02-20T09:58:00Z,Access: 24 hours daily; No reviews found,N/A,N/A,N/A
155644,Owasso Land Building - Francis Energy,12140 East 96th Street North,Owasso,OK,74055,United States,36.29281584,-95.83899175,"CCS (Type 1), CHAdeMO","50, 50",8,Francis Energy,Public,Operational,2024-02-11T03:47:00Z,"General: 50kW DC Fast Chargers Provided by Francis Energy, Access: Use EVGateway App to manage charging; No reviews found",$1.00/session+$0.21/minute,N/A,N/A
222003,Oklahoma Aquarium,300 Aquarium Dr,Jenks,OK,74037,United States,36.01898819,-95.95800042,"CHAdeMO, CCS (Type 1)","40, 40",2,N/A,Public,Operational,2023-07-04T08:55:00Z,Access: 9am-8pm 7 daily; No reviews found,N/A,N/A,N/A
281190,Towanda Service Area - Superchargers,7225 Kansas Turnpike,El Dorado,KS,67210,United States,37.76519225,-96.98265795,NACS / Tesla Supercharger,250,8,Tesla (Tesla-only charging),Public,Operational,2023-12-04T09:59:00Z,"""Hot foods snacks drinks & big parking for semi !""; ""Nice people and good food!!!""",N/A,N/A,N/A
276058,TPG PHASE 3,3401 N Elm Ave,Broken Arrow,OK,74012,United States,36.085873,-95.79351,Type 1 (J1772),3.7,2,ChargePoint,Public,Operational,2024-02-20T09:56:00Z,Access: 24 hours daily; No reviews found,N/A,N/A,N/A
155643,Fine Airport Parking - Francis Energy,2010 North Memorial Drive,Tulsa,OK,74115,United States,36.18253958,-95.88534576,"CCS (Type 1), CHAdeMO, Type 1 (J1772)","50, 50, 8",8,Francis Energy,Public,Operational,2024-02-10T01:02:00Z,"General: 50kW DC Fast Chargers & Level 2 Provided by Francis Energy (Level 1 by Fine), Access: Use EVGateway App to manage charging ; No reviews found",$1.00/session+$0.21/minute,N/A,N/A
222028,Avid Hotel Tulsa South,8007 S Mingo Rd,Tulsa,OK,74133,United States,36.04777317,-95.86745767,Tesla (Model S/X),3.7,2,N/A,Public - Pay At Location,Operational,2024-02-20T09:56:00Z,"Access: 24 hours daily
Public - Credit card at all times; ""Good location, good prices, courteous staff, good service""; ""Shower door was broken and some yuck on the wall near the bed.""; ""Good place for a late night check in, early morning check out""",N/A,TRUE,FALSE
118520,Doubleshot Coffee Company,1633 S Boulder Ave,Tulsa,Oklahoma,74119,United States,36.1385333,-95.9881492,Tesla (Model S/X),10,2,Tesla (Tesla-only charging),Public - Membership Required,Operational,2019-03-25T06:53:00Z,"General: 2 Tesla Connectors, up to 10kW.Available for customers. Self park.; ""Great staff Great environment And the owner is highly personable!!""; ""Unbeatable interior atmosphere, outside tables too and great coffee!""; ""My husband ordered the coffee drip and I ordered latte.""",N/A,FALSE,TRUE
222038,Hampton Inn & Suites Tulsa-Woodland Hills 71st-Memorial,7141 S 85th E Ave,Tulsa,OK,74133,United States,36.05939181,-95.88118714,Tesla (Model S/X),3.7,2,N/A,Public - Pay At Location,Operational,2024-02-20T09:56:00Z,"Access: 24 hours daily
Public - Credit card at all times; No reviews found",N/A,TRUE,FALSE
262542,BWCOWETA BWCOWETA,13593 OK-51,Coweta,OK,74429,United States,35.967153,-95.655999,Type 1 (J1772),3.7,2,ChargePoint,Public,Operational,2024-02-20T09:56:00Z,"Access: 24 hours daily; ""Room was immaculate, beds were comfy, and the people/service was wonderful!""; ""Belgium waffles, eggs, sausage, biscuits and gravy, fruit, pastries and more.""; ""Perfect location, super clean and wonderful rooms, and outstanding staff.""",N/A,N/A,N/A
140496,Verizon - Tulsa,6929 N Lakewood Ave,Tulsa,OK,74117,United States,36.254275,-95.904427,Type 1 (J1772),3.7,4,N/A,Private - Restricted Access,Operational,2024-02-20T09:57:00Z,Access: For employee use only; No reviews found,N/A,N/A,TRUE
276056,TPG PHASE 5,3401 N Elm Ave,Broken Arrow,OK,74012,United States,36.085587,-95.793381,Type 1 (J1772),3.7,2,ChargePoint,Public,Operational,2024-02-20T09:56:00Z,Access: 24 hours daily; No reviews found,N/A,N/A,N/A
140427,Residence Inn/Hilton Garden Inn Tulsa Midtown - Tesla Destination,4522 E Skelly Dr,Tulsa,OK,74135,United States,36.091183,-95.924064,Tesla (Model S/X),3.7,2,Tesla (Tesla-only charging),Public,Operational,2024-02-20T09:56:00Z,No reviews found,N/A,N/A,N/A
72938,HARDESTY HALL,501 S Florence Ave,Tulsa,OK,74104,United States,36.1535936,-95.9449935,Type 1 (J1772),3.7,2,ChargePoint,Public,N/A,2020-06-26T02:58:00Z,Access: 24 hours daily; No reviews found,N/A,N/A,N/A
14589,Route 66 Nissan - Tulsa,8190 E Skelly Dr,Tulsa,OK,74129,United States,36.121637,-95.88371,"Type 1 (J1772), Type 1 (J1772)","3.7, N/A",5,N/A,Public - Notice Required,N/A,2020-06-26T02:58:00Z,"Access: Dealership business hours
Public - Call ahead; ""Great selection, awesome prices and customer service!""; ""Terrible service at the new car's, Great service at the service department.""; ""Great Service and Staff are very courteous.""",N/A,FALSE,FALSE
140912,EVERGY @KTA SVC -403A,7269 S Kansas Turnpike @ KS Turnpike - Towand,El Dorado OCL,KS,67042,United States,37.765821,-96.982458,Type 1 (J1772),3.7,2,ChargePoint,Public,Operational,2024-02-20T10:02:00Z,Access: 24 hours daily; No reviews found,N/A,N/A,N/A
140433,Reasor's - Brookside,3919 S Peoria,Tulsa,OK,74105,United States,36.105657,-95.975174,"CHAdeMO, CCS (Type 1)","50, 50",10,Francis Energy,Public,Operational,2024-02-11T14:44:00Z,"Access: 24 hours daily; ""Great selection of food items, lacking staff for check out.""; ""Understands patrons who depend on fresh flowers/floral design at Reasors.""; ""Clean place good service price ++""",N/A,N/A,N/A
11789,Westar Energy- Arkansas City Service Center,3113 N Summit,Arkansas City,KS,67005,United States,37.0962601,-97.0402486,Type 1 (J1772),N/A,1,Westar Energy ElectroGo,(Unknown),Operational,2012-07-15T08:06:00Z,No reviews found,Free,N/A,N/A
293973,City of Broken Arrow - 215 S 1st,215 S 1st St,Broken Arrow,OK,74012,United States,36.050763,-95.78904,Type 1 (J1772),3.7,8,EV Energy Group (FCN),Public,Operational,2024-02-20T09:56:00Z,"Access: 24 hours daily; ""The staff helped me take care of an alarm renewal quickly and easily.""; ""The most incompetent and snobby people I have ever dealt with in my entire life.""; ""They miss the trash on a regular basis.""",N/A,N/A,N/A
155580,Jiffy Trip,200 W Trower Blvd,Mannford,OK,74044,United States,36.12833833,-96.35783529,"CCS (Type 1), CHAdeMO","200, 100",4,Francis Energy,Public,Operational,2024-02-11T14:50:00Z,"General: 200kW HPC Chargers Provided by Francis Energy, Access: Use EVGateway App to manage charging; No reviews found","$1.00 to Connect, $0.21 per minute",N/A,N/A
117991,Residence Inn/Hilton Garden Inn Tulsa Midtown,4522 E Skelly DR,Tulsa,Oklahoma,74135,United States,36.091183,-95.924064,Tesla (Model S/X),16,2,Tesla (Tesla-only charging),Public - Membership Required,Operational,2019-06-05T12:00:00Z,"General: 2 Tesla Connectors, up to 16kW.Available for customers. Please see front desk.; ""Awesome breakfastðŸ³â˜•ðŸž The staff was so nice and they offered dog ðŸ•treats .""; ""We stayed at this hotel as a family for my husband's work.""; ""Excellent Service Excellent Quality Excellent Customer Service""",N/A,FALSE,TRUE
123656,Liberty Utilities - DTWN Joplin,602 S Joplin St,Joplin,MO,64801,United States,37.084285,-94.515668,Type 1 (J1772),3.7,2,ChargePoint,Public,Operational,2024-02-20T09:58:00Z,Access: 24 hours daily; No reviews found,N/A,N/A,N/A
269213,The Cosmopolitan,1717 Riverside Drive,Tulsa,OK,74119,United States,36.136808,-95.992638,Type 1 (J1772),3.7,5,Blink Charging,Public,Operational,2024-02-20T09:56:00Z,Access: 24 hours daily; No reviews found,N/A,N/A,N/A
105498,Heart of Route 66 Auto Museum,13 Sahoma Lake RD,Sapulpa,Oklahoma,74066,United States,35.996111,-96.129712,Tesla (Model S/X),16,4,Tesla (Tesla-only charging),Public - Membership Required,Operational,2018-06-08T05:29:00Z,"General: 4 Tesla Connectors, up to 16kW.Available for customers. Self park.; No reviews found",N/A,FALSE,TRUE
262549,"Tulsa, OK Supercharger",7380 S Olympia Ave,Tulsa,OK,74132,United States,36.054129,-96.004924,NACS / Tesla Supercharger,250,24,Tesla (Tesla-only charging),Public,Operational,2024-02-14T17:22:00Z,"General: 24 Superchargers up to 250kW, Available 24/7, Access: Located at Tulsa Hills Shopping Center; ""Bottom line: great for charging, not so convenient for fast food.""; ""You can go shopping while you wait.""; ""It's near tons of restaurants, gas stations, and stores.""",N/A,N/A,N/A
140428,MYERS-DUREN H-D,4848 S Peoria Ave,Tulsa,OK,74105,United States,36.094106,-95.975935,"Type 1 (J1772), CCS (Type 1)","3.7, 40",3,ChargePoint,Public,Operational,2020-06-26T02:58:00Z,"Access: 24 hours daily; ""Great place knowledgeable friendly staff and service.""; ""Best people, best selection and best service hands down.""; ""Steve understands how customers value how and where their money is spent.""",N/A,N/A,N/A
155579,Colton's Steak House - Francis Energy,32 Alexander Blvd,Sand Springs,OK,74063,United States,36.13461532,-96.11201317,"CCS (Type 1), CHAdeMO, CCS (Type 1), CHAdeMO","200, 100, 50, 50",8,Francis Energy,Public,Operational,2024-02-11T00:29:00Z,"General: 200kW HPC Chargers Provided by Francis Energy, Access: Use EVGateway App to manage charging; ""OMG - amazing food, amazing service, amazing prices for beef, amazing taste!!!!!""; ""Other people at my table ordered steaks cooked medium and received very well.""; ""Ample servings, excellent salad, tasty queso dip, ribs and coleslaw.""","$1.00 to Connect, $0.21 per minute",N/A,N/A
155636,City of Broken Arrow - Francis Energy,400 S Ash Ave,Broken Arrow,OK,74012,United States,36.0494047,-95.79230245,"CCS (Type 1), CHAdeMO, Type 1 (J1772), CCS (Type 1), CHAdeMO","50, 50, 9.6, 60, 60",12,Francis Energy,Public,Operational,2024-04-16T12:23:00Z,"General: 50kW DC Fast Chargers & Level 2 Provided by Francis Energy, Access: Use EVGateway App to manage charging ; No reviews found",$1.00/session+$0.21/minute,N/A,N/A
222153,OSU-CHS WEST STATION,1111 W. 17th,Tulsa,OK,74107,United States,36.13818,-96.003478,Type 1 (J1772),3.7,2,ChargePoint,Public,Operational,2024-02-20T09:56:00Z,Access: 24 hours daily; No reviews found,N/A,N/A,N/A
123659,Liberty Utilities - Joplin Street,228 S Joplin,Joplin,MO,64801,United States,37.089221,-94.51447,Type 1 (J1772),3.7,2,N/A,Public,Operational,2024-02-20T09:58:00Z,"Access: 24 hours daily; ""Overpriced and monopolized service in this area.""; ""Idiotic staff, won't work with customers, charges you to make your payments.""; ""Good services just had a price hike though""",N/A,N/A,N/A
140493,The Nut House - Tesla Destination,26677 S Rte 66,Claremore,OK,74019,United States,36.22696697,-95.70001149,Type 1 (J1772),3.7,4,N/A,Public,Operational,2024-02-20T09:57:00Z,"Access: 9am-6pm M-Sat, 11am-5pm Sun; No reviews found",N/A,N/A,N/A
244752,Evergy - Wolf Creek - Dwight D Eisenhower Learning Center,1550 Oxen Ln NE,Burlington,KS,66839,United States,38.23899,-95.6886,Type 1 (J1772),3.7,1,N/A,Public,Operational,2024-02-20T10:03:00Z,Access: 24 hours daily; No reviews found,N/A,N/A,N/A
282028,LIBERTY EMPIRE NEOSHO 3,114 N Jefferson St,Neosho,MO,64850,United States,36.869946,-94.36982,Type 1 (J1772),3.7,2,ChargePoint,Public,Operational,2024-02-20T09:58:00Z,"Access: 24 hours daily; ""Prices to high and they aren't good to their customers.""; ""She then recommended I go ahead and pay money on my account.""; ""I've not even received a Bill for my June usage July Bill.""",N/A,N/A,N/A
222075,Hilti International - East,5400 S 122nd E Ave,Tulsa,OK,74146,United States,36.0871947,-95.84090077,"Type 1 (J1772), CHAdeMO, CCS (Type 1)","3.7, 60, 60",8,Francis Energy,Public,Operational,2024-02-11T14:39:00Z,"Access: 24 hours daily
Public - Credit card at all times; No reviews found",N/A,N/A,N/A
123636,LIBERTY EMPIRE WILDCATGLADES1,201 Riviera Dr At the Wildcat Glades Conserva,Joplin,MO,64804,United States,37.029222,-94.516774,Type 1 (J1772),3.7,2,ChargePoint,Public,Operational,2024-02-20T09:58:00Z,"Access: 24 hours daily; ""Beautiful area, handicap accessible bathrooms with very nice staff.""; ""Great place to take a walk or paddle around on the water.""; ""The music and atmosphere was great, and overall we had a wonderful time.""",N/A,N/A,N/A
276355,Love's 176-Matfield Green,Milepost 97 Kansas Turnpike,Matfield Green,KS,66862,United States,38.094676,-96.580171,"CHAdeMO, CCS (Type 1)","110, 350",4,Francis Energy,Public,Operational,2024-01-16T08:52:00Z,Access: 24 hours daily; No reviews found,N/A,N/A,N/A
242030,MYERS-DUREN H-D CT4K 01,4848 S Peoria Ave,Tulsa,OK,74105,United States,36.093398,-95.976149,Type 1 (J1772),3.7,2,ChargePoint,Public,Operational,2023-12-04T03:37:00Z,Access: 24 hours daily; No reviews found,N/A,N/A,N/A
223355,Bettels Farms Shopping Center,400 Johnson Dr,Nevada,MO,64772,United States,37.83293097,-94.32456196,"Type 1 (J1772), CHAdeMO, CCS (Type 1)","7.7, 120, 150",6,Francis Energy,Public,Operational,2024-03-05T23:16:00Z,"Access: 24 hours daily
Public - Credit card at all times; No reviews found",N/A,N/A,N/A
123285,Jackie Cooper Imports,9393 S Memorial Dr,Tulsa,OK,74133,United States,36.027467,-95.885168,Type 1 (J1772),3.7,2,N/A,Public - Notice Required,Operational,2024-02-20T09:56:00Z,"Access: Dealership business hours; for customer use only
Public - Call ahead; No reviews found",N/A,FALSE,FALSE
15310,Westar Energy Fort Scott Service Center,15 Stanton Street,Fort Scott,Kansas,66701,United States,37.8438197,-94.7068071,Type 1 (J1772),N/A,1,Westar Energy ElectroGo,(Unknown),Operational,2013-01-05T22:06:00Z,"""Had a service renewed at a fixer upper we are working on in town last summer.""; ""Why anyone wouldn't rate them a 1 I will never know.""; ""(Now we're just making stuff up) Come on seriously?""",Free,N/A,N/A
262621,Swtch Energy,407 N Broadway,Pittsburg,KS,66762,United States,37.4114,-94.705,Type 1 (J1772),3.7,1,SWTCH - Charge Everywhere,Public - Pay At Location,Operational,2024-02-20T10:00:00Z,"Access: 24 hours daily
Public - Credit card at all times; No reviews found",N/A,TRUE,FALSE
123244,HULBERT OFFICE,500-598 S Lake Region Rd,Hulbert,OK,74441,United States,35.9306201,-95.1362012,"NEMA 5-20R, Type 1 (J1772)","1, 3",2,ChargePoint,Public,N/A,2019-12-24T09:12:00Z,Access: 24 hours daily; No reviews found,N/A,N/A,N/A
223356,"Nevada, MO Supercharger",500 E Austin Blvd,Nevada,MO,64772,United States,37.83674561,-94.351392,NACS / Tesla Supercharger,250,8,Tesla (Tesla-only charging),Public,Operational,2024-01-30T13:54:00Z,"General: 8 Superchargers up to 250kW, Available 24/7, Access: Located at Casey's General Store #3328; ""Fast charging, restrooms and food nearby.""; ""This is a life saver location itâ€™s in the middle of small town.""; ""Nice place to stop and charge with the Caseyâ€™s Convenience Store right there.""",N/A,N/A,N/A
155639,Stoney Creek Hotel & Conference Center - Francis Energy,200 West Albany Street,Broken Arrow,OK,74012,United States,36.07280644,-95.79251861,"CCS (Type 1), CHAdeMO, Type 1 (J1772)","50, 50, 9.6",8,Francis Energy,Public,Operational,2024-02-10T12:58:00Z,"General: 50kW DC Fast Charger & Level 2 Provided by Francis Energy, Access: Use EVGateway App to manage charging ; ""Breakfast included eggs, biscuits/gravy, sausage, pancakes, toast, bagels.""; ""Great location, large rooms, comfy beds, tons of options for breakfast.""; ""For the price we paid for a standard 2 queen bed room, this place is awesome.""",$1.00/session+$0.21/minute,N/A,N/A
29739,10625 East Kellogg Avenue,10625 East Kellogg Avenue,Wichita,KS,67207,United States,37.678378,-97.214726,Type 1 (J1772),N/A,0,AeroVironment,N/A,Unknown,2017-11-04T14:04:00Z,No reviews found,N/A,N/A,N/A
11790,Westar Energy- Wolf Creek,1550 Oxen Lane,Burlington,KS,66839,United States,38.2394607,-95.6893636,Type 1 (J1772),N/A,1,eVgo Network,(Unknown),Operational,2012-07-15T08:02:00Z,No reviews found,Free,N/A,N/A
223297,EVERGY @WSU TECH-417C,4004 N Webb Rd @ WSU Tech Center,Wichita,KS,67226,United States,37.758919,-97.22457,Type 1 (J1772),3.7,2,ChargePoint,Public,Temporarily Unavailable,2024-02-20T10:02:00Z,Access: 24 hours daily; No reviews found,N/A,N/A,N/A
241954,HULBERT OFFICE LAKE REGION,516 S Lake Region Rd,Hulbert,OK,74441,United States,35.930951,-95.134702,Type 1 (J1772),3.7,1,ChargePoint,Public,Temporarily Unavailable,2023-12-04T03:36:00Z,Access: 24 hours daily; No reviews found,N/A,N/A,N/A
115636,Towne East Square,7700 E Kellogg Dr,Wichita,KS,67207,United States,37.6842923,-97.2451156,CCS (Type 1),350,4,Electrify America,Public,Operational,2024-10-24T03:44:00Z,"Access: 24 hours daily; ""Nice experience no long lines, friendly service and lots of parking""; ""Children's Place has the best quality and prices.""; ""The food court is a bit small, with limited selection.""",N/A,N/A,N/A
140398,WHOLE FOODS MKT WFM YALE,9136 S Yale Ave,Tulsa,OK,74137,United States,36.030889,-95.92309,"Type 1 (J1772), Type 1 (J1772)","3.7, 3",3,ChargePoint,Public,Temporarily Unavailable,2024-02-20T09:56:00Z,"Access: 24 hours daily; ""Great selection of organic foods, supplements, wines, baked goods, and cheeses!""; ""Rest of the place meh, just got to Sprouts itâ€™s a way better vibe.""; ""A bit pricey, but high quality, especially if you want fresh fish and meat.""",N/A,N/A,N/A
121172,EVERGY @PSU KTC -401B,909 E Ford Ave @ Pitt State Tech Center,Pittsburg,KS,66762,United States,37.389472,-94.689872,Type 1 (J1772),3.7,2,ChargePoint,Public,Operational,2024-02-20T10:00:00Z,Access: 24 hours daily; No reviews found,N/A,N/A,N/A
269295,HATCHETT FRONT_WEST,11200 E Central Ave,Wichita,KS,67206,United States,37.694452,-97.207403,"CHAdeMO, CCS (Type 1)","50, 50",2,ChargePoint,Public,Operational,2024-02-20T10:01:00Z,Access: 24 hours daily; No reviews found,N/A,N/A,N/A
262580,NARA Parking Deck,1 Airport Blvd,Bentonville,AR,72712,United States,36.27406692,-94.29716592,Type 1 (J1772),3.7,4,N/A,Public - Pay At Location,Operational,2024-02-20T09:57:00Z,"Access: 24 hours daily
Public - Credit card at all times; No reviews found",N/A,TRUE,FALSE
155572,EZ GO - Francis Energy,Muskogee Tpk Concession,Porter,OK,74454,United States,35.85278539,-95.42016353,"CCS (Type 1), CHAdeMO, CCS (Type 1), CHAdeMO","200, 100, 60, 60",12,Francis Energy,Public,Operational,2024-02-10T12:51:00Z,"General: Use EVGateway App to manage charging, Access: Has easy pull-through access for Trailers; No reviews found","$1 to connect, $0.21 per minute",N/A,N/A
242150,BLUE CRANE 608 NE ALPHA,608 NE Alpha Cir.,Bentonville,AR,72712,United States,36.378685,-94.19078,Type 1 (J1772),3.7,2,ChargePoint,Public,Operational,2024-02-20T09:57:00Z,Access: 24 hours daily; No reviews found,N/A,N/A,N/A
262574,Superior Chevrolet,490 Hwy 412,Siloam Springs,AR,72761,United States,36.17186429,-94.5376466,Type 1 (J1772),3.7,1,N/A,Public - Pay At Location,Operational,2024-02-20T09:57:00Z,"Access: 24 hours daily
Public - Credit card at all times; ""They have a great staff, great price and great service.""; ""They are the nicest and most helpful service team I have ever dealt with.""; ""ðŸ“Very good customer service and Car Service!!ðŸš˜ðŸ›  Thank you so much !!""",N/A,TRUE,FALSE
262588,Bentonville Airport,2505 SW I St,Bentonville,AR,72712,United States,36.34900209,-94.2217842,Type 1 (J1772),3.7,2,N/A,Public - Pay At Location,Operational,2024-02-20T09:57:00Z,"Access: 24 hours daily
Public - Credit card at all times; ""Nice atmosphere, enjoyed the brunch I highly recommend!""; ""Great place for an enjoyable hike, tough playground for climbing, and fishing.""; ""Amazing staff and great restaurant""",N/A,TRUE,FALSE
124135,WESTAR ENERGY,3830 N Toben St,Wichita,KS,67226,United States,37.755177,-97.231398,Type 1 (J1772),3.7,18,ChargePoint,Public,N/A,2020-06-26T02:59:00Z,"Access: 24 hours daily; ""Prices are out of control and continue to get worse.""; ""Thereâ€™s no working with people and they really donâ€™t care.""",N/A,N/A,N/A
11782,Westar Energy-Emporia Office,210 E 2nd Ave,Emporia,KS,66801,United States,38.400483,-96.177256,Type 1 (J1772),N/A,2,Westar Energy ElectroGo,(Unknown),Operational,2019-02-15T11:47:00Z,Date: 2013-04-12T14:00:31.89Z | User: Matt Lehrman | Comment: There are now two Level 2 charging stations at this location. | Status: N/A | URL: N/A; No reviews found,Free,N/A,N/A
124065,Orr Nissan - Wichita,10625 E Kellogg Dr,Wichita,KS,67207,United States,37.679034,-97.217163,Type 1 (J1772),3.7,1,N/A,Public - Notice Required,Operational,2024-02-20T10:01:00Z,"Access: Dealership business hours
Public - Call ahead; ""The service manager, Emily was very helpful as well the rest of the people""; ""They beat Costco and Internet price and we were out the door with no pain!""; ""It was a personal experience that she definitely enjoyed as well as my family !""",N/A,FALSE,FALSE
241935,Love's 166-Muskogee,498 Muskogee Turnpike,Porter,OK,74401,United States,35.852493,-95.419795,"CHAdeMO, CCS (Type 1)","50, 50",2,EV Energy Group (FCN),Public,Operational,2024-02-20T09:55:00Z,Access: 24 hours daily; No reviews found,N/A,N/A,N/A
159217,EVERGY @WSU YMCA -413A,2060 N Mid-Campus Dr @ WSU Steve Clark YMCA,Wichita,KS,67208,United States,37.72004,-97.28749,"Type 1 (J1772), CHAdeMO, CCS (Type 1)","3.7, 40, 40",4,ChargePoint,Public,Operational,2024-02-20T10:02:00Z,"Access: 24 hours daily; ""Excellent facility, love the upgraded equipment you have at this location!""; ""I have met so many awesome people and this is truly my home away from home.""; ""Place is always clean and the staff is always friendly.""",N/A,N/A,N/A
155593,Tahlequah Splash Pad - Francis Energy,North Water Avenue,Tahlequah,OK,74464,United States,35.91599087,-94.9678679,"CCS (Type 1), CHAdeMO","50, 50",2,EVGateway,Public,Operational,2020-04-20T14:39:00Z,"General: 50kW DC Fast Charger Provided by Francis Energy, Access: Use EVGateway App to manage charging; ""Nice place for the family to cool off and have some fun!!ðŸŒŠðŸŒŠ""; ""It's kept clean & no trash around""; ""Complaints are there should be fence with a gate around the whole playground.""","$1.00 to Connect, $.21 per minute",N/A,N/A
244513,EVERGY @WICHITA OC425A,4025 N Toben St @ Evergy Wichita Operations C,Wichita,KS,67226,United States,37.755861,-97.232353,Type 1 (J1772),3.7,2,ChargePoint,Public,Temporarily Unavailable,2024-02-20T10:02:00Z,"Access: 24 hours daily; ""Prices are out of control and continue to get worse.""; ""Thereâ€™s no working with people and they really donâ€™t care.""",N/A,N/A,N/A
269292,Holiday Inn Express,600 S Allen St,Andover,KS,67002,United States,37.67768442,-97.13941653,Type 1 (J1772),3.7,2,N/A,Public - Pay At Location,Operational,2024-02-20T10:01:00Z,"Access: 24 hours daily
Public - Credit card at all times; ""Great front desk service, nice bartender, yummy burgers- 4 cheese bacon burger!""; ""Bed was comfortable, staff nice & breakfast was tasty.""; ""Clean rooms and tons of ammenties including TV, work or room and pool.""",N/A,TRUE,FALSE
241993,BMW OF TULSA STATION 01,7901-8099 E 98th St S,Tulsa,OK,74133,United States,36.022414,-95.887313,Type 1 (J1772),3.7,2,ChargePoint,Public,Temporarily Unavailable,2024-02-20T09:56:00Z,"Access: 24 hours daily; ""I got my regular service and an Interior Soa treatment- car looked brand new!""; ""My thanks goes out to the service writer, technician, and service manager.""; ""Great customer provided by Jonathan Vera service advisor and BMW Omar.""",N/A,N/A,N/A
11780,Westar Energy-Wichita Operations Center,1900 E Central Ave,Wichita,KS,67214,United States,37.695062,-97.313754,Type 1 (J1772),N/A,1,eVgo Network,(Unknown),Operational,2012-07-15T08:05:00Z,"""There is no more customer services in todays local electric company in Wichita.""; ""You will still charge me full price.""; ""My place only runs on electricty so it being out is very bad.""",Free,N/A,N/A
123143,Nissan of Muskogee,841 N Main St,Muskogee,OK,74401,United States,35.758041,-95.364248,Type 1 (J1772),3.7,1,N/A,Public - Notice Required,Operational,2023-12-04T03:35:00Z,"Access: Dealership business hours
Public - Call ahead; ""Great inventory, great people to work with and service is great.""; ""Not the friendliest staff in town but the deals were decent.""; ""Salesman was not pushy, and answered all questions in a timely manner.""",N/A,FALSE,FALSE
223265,Home2 Suites by Hilton Wichita Northeast - Tesla Destination,2102  N Crossmark PL,Wichita,KS,67206,United States,37.72098,-97.20046,Tesla (Model S/X),3.7,4,Tesla (Tesla-only charging),Public,Operational,2024-02-20T10:02:00Z,"""Great service, great food, great rooms, great people 10/10 Aries was amazing.""; ""Free parking Free breakfast This place canâ€™t be beat!""; ""Breakfast was nice with eggs, bacon, and country potatoes every day.""",N/A,N/A,N/A
4615,John North Nissan,3002 W Highway 50,Emporia,KS,66801,United States,38.4105626,-96.2217603,Type 1 (J1772),N/A,1,(Unknown Operator),Public,Operational,2011-06-09T20:12:00Z,"""Great ðŸ‘ place for service ðŸ‘""; ""I received a recall notice for a hood latch on my Nissan Altima.""; ""Friendly staff and worked hard to get us in a vehicle to meet our needs""",N/A,N/A,N/A
222315,BLUE CRANE 600 NE ALPHA,600 NE Alpha Cir.,Bentonville,AR,72712,United States,36.377837,-94.190726,Type 1 (J1772),3.7,2,ChargePoint,Public,Operational,2024-02-20T09:57:00Z,Access: 24 hours daily; No reviews found,N/A,N/A,N/A
262592,NW A St Parking Lot - Tesla Destination,216 NW A St,Bentonville,AR,72712,United States,36.37349781,-94.21006722,Tesla (Model S/X),3.7,9,Tesla (Tesla-only charging),Public - Pay At Location,Operational,2024-02-20T09:57:00Z,"Access: 24 hours daily
Public - Credit card at all times; ""Staff at the hotel was amazing.""; ""Bit hard to find as it is in a garage.""; ""Not well organized at all.""",N/A,TRUE,FALSE
244461,Hyatt Regency Wichita - Tesla Destination,400 W Waterman St,Wichita,KS,67202,United States,37.6828374,-97.341229,Tesla (Model S/X),3.7,1,Tesla (Tesla-only charging),Public,Operational,2024-02-20T10:01:00Z,"""So much options to choose fromâ€¦eggs, bacon, pancakes, French toast, etc.""; ""Quiet room, comfortable, great staff and service, delicious food too!""; ""Also, they gave starbucks coupons of 2 drinks which can be used in food area.""",N/A,N/A,N/A
222218,SILOAM SPRINGS EVC 1,205 E Jefferson St,Siloam Springs,AR,72761,United States,36.181654,-94.540349,Type 1 (J1772),3.7,2,ChargePoint,Public,Operational,2024-02-20T09:57:00Z,Access: 24 hours daily; No reviews found,N/A,N/A,N/A
155592,Cherokee Gaming Commision - Francis Energy,200 N Water Ave,Tahlequah,OK,74464,United States,35.91385412,-94.9689654,"CCS (Type 1), CHAdeMO, Type 1 (J1772)","50, 50, 8",3,Francis Energy,Public,Partly Operational (Mixed),2024-02-10T01:13:00Z,"General: 50kW DC Fast Charger and Level 2 Provided by Francis Energy, Access: Use EVGateway App to manage charging; No reviews found","$1.00 to Connect, $0.21 per minute",N/A,N/A
123174,Fort Gibson National Cemetery - National Cemetery Administration,1423 Cemetery Rd,Fort Gibson,OK,74434,United States,35.805622,-95.218605,Type 1 (J1772),3.7,1,N/A,Private - Restricted Access,Operational,2024-02-20T09:55:00Z,No reviews found,N/A,N/A,TRUE
262590,City U Project,125 W Central,Bentonville,AR,72712,United States,36.37210438,-94.20997812,Type 1 (J1772),3.7,6,Blink Charging,Public,Operational,2024-02-20T09:57:00Z,Access: 24 hours daily; No reviews found,N/A,N/A,N/A
121597,Walmart 324 Bristow,105 OK-16,Bristow,OK,74010,United States,35.8432342,-96.395803,"CHAdeMO, CCS (Type 1), CCS (Type 1)","50, 350, 150",5,Electrify America,Public,Operational,2024-04-16T12:20:00Z,"Access: 24 hours daily; ""Cuz they match prices wheel of Wally World and it's good service""; ""Nice produce and good selection shelves were well stocked.""; ""Got 2 new tires at a good price and the mgr and staff very professional.""",N/A,N/A,N/A
155591,Cherokee Nation Industries - Francis Energy,South Water Avenue,Tahlequah,OK,74464,United States,35.91088425,-94.97037323,"CCS (Type 1), CHAdeMO, Type 1 (J1772)","50, 50, 8",3,Francis Energy,Public,Partly Operational (Mixed),2024-02-10T01:14:00Z,"General: 50kW DC Fast Charger and Level 2 Provided by Francis Energy, Access: Use EVGateway App to manage charging; No reviews found","$1.00 to Connect, $0.21 per minute",N/A,N/A
223099,THE SANDBOX STATION 1,2412 N Rock Rd,Derby,KS,67037,United States,37.572869,-97.243337,Type 1 (J1772),3.7,2,ChargePoint,Public,Operational,2024-02-20T10:01:00Z,"Access: 24 hours daily; ""Have had their steak, prime rib, salmon, salad, pork chops & smothered chicken.""; ""Service is great, food tastes fantastic, lovely atmosphere""; ""They had a nice selection of beer and drinks to choose from as well.""",N/A,N/A,N/A
276397,Longbine Auto Plaza,3012 US-50,Emporia,KS,66801,United States,38.411528,-96.223277,CCS (Type 1),50,1,EV Connect,Public,Operational,2023-09-28T04:42:00Z,"""The service was done promply, with a very nice place to wait.""; ""Communication is great, and prices are hard to beat!""; ""All great people to work with and no pressure.""",N/A,N/A,N/A
140512,THADEN SCHOOL THADEN SCHOOL,201 SE 10th St,Bentonville,AR,72712,United States,36.362106,-94.20771,Type 1 (J1772),3.7,2,ChargePoint,Public,Operational,2024-02-20T09:57:00Z,Access: 24 hours daily; No reviews found,N/A,N/A,N/A
281952,3001 S Muskogee Ave,3001 S Muskogee Ave,Tahlequah,OK,74464,United States,35.882803,-94.975426,CCS (Type 1),50,2,EV Connect,Public,Operational,2024-02-20T09:55:00Z,No reviews found,N/A,N/A,N/A
294010,WALMART PD-12 CHARGER 5,1300 SE 5th St,Bentonville,AR,72712,United States,36.36717,-94.19537,Type 1 (J1772),3.7,2,ChargePoint,Public,Operational,2024-02-20T09:57:00Z,Access: 24 hours daily; No reviews found,N/A,N/A,N/A
124006,City of Derby - Aviator Church,200 W Greenway,Derby,KS,67037,United States,37.557132,-97.27296,Type 1 (J1772),3.7,1,N/A,Public,Operational,2024-02-20T10:01:00Z,Access: 24 hours daily; No reviews found,N/A,N/A,N/A
213445,EZ Go / Philipps 66 Belle Plaine,"Mile 26 Kansas Turnpike, Belle Plaine, KS 67013, USA",Belle Plaine,Kansas,67013,United States,37.36702342,-97.32228417,"CCS (Type 1), CHAdeMO","350, 110",4,Francis Energy,Public,Operational,2024-04-15T12:08:00Z,"""Great service, clean bathrooms and friendly staff""; ""Loads of drinks and food of good quality!""; ""Good prices and clean rest rooms""", $1 Service Charger + .39Â¢ a minute,N/A,N/A
27337,21c Museum Hotel,200 NE A St,Bentonville,AR,72712,United States,36.3741018,-94.2077937,Tesla (Model S/X),13,2,Tesla (Tesla-only charging),Public - Notice Required,Operational,2017-02-02T22:53:00Z,"Access: 24 hours daily; complimentary for hotel and restaurant guests; ""Impeccable rooms, great service,& the location best in town.""; ""Nice room but the staff and the atmosphere felt a little snobby.""; ""The bed slept great and I don't typically sleep well in hotel beds.""",Free,FALSE,FALSE
4614,Davis-moore Nissan,6225 E Kellogg Dr,Wichita,Kansas,67218,United States,37.678631,-97.265024,Type 1 (J1772),N/A,1,(Unknown Operator),Public,Operational,2011-06-09T20:10:00Z,"""They gave me a ride to and from work and nice conversation with service reps!""; ""Excellent service by the service advisor and employees.""; ""They fixed my coolant, housing thermostat, and small oil leak in May!""",N/A,N/A,N/A
222310,G AT MARKET G MARKET SOUTH,301 SE G St,Bentonville,AR,72712,United States,36.369565,-94.200591,Type 1 (J1772),3.7,2,ChargePoint,Public,Operational,2024-02-20T09:57:00Z,"Access: 24 hours daily; ""Really quick response to my service request!""; ""Staff is super personable and very friendly (shoutout arina!).""; ""This place has it all.... go check them out!""",N/A,N/A,N/A
157353,"Emporia, KS Supercharger",1312 Industrial Road,Emporia,KS,66801,United States,38.414344,-96.21673,NACS / Tesla Supercharger,250,8,Tesla (Tesla-only charging),Public - Membership Required,Operational,2023-12-29T17:19:00Z,"General: 8 Superchargers, available 24/7, up to 250kW, Access: Located at Emporia West Plaza; ""Super clean and have a changing table in them!""; ""You can use the bathrooms at the tractor supply if you need to.""; ""Great Asian bistro sharing the parking lot.""",$0.20/min >=60kW; $0.10/min <60kW; other tariffs for older cars,FALSE,TRUE
294009,WALMART PD-12 CHARGER 3,1106 SE 5th St,Bentonville,AR,72712,United States,36.367097,-94.194534,Type 1 (J1772),3.7,2,ChargePoint,Public,Operational,2024-02-20T09:57:00Z,Access: 24 hours daily; No reviews found,N/A,N/A,N/A
140575,"Casey's Blackwell (Blackwell, OK)",4415 W Doolin Ave,Blackwell,OK,74631,United States,36.811051,-97.336458,"CHAdeMO, CCS (Type 1), CCS (Type 1), CCS (Type 1)","50, 350, 150, 50",5,Electrify America,Public,Operational,2023-09-17T12:55:00Z,"Access: 24 hours daily; ""Unique gas station with fresh donuts and homestyle pizza.""; ""Employees could have cared less when I had to walk inside for my receipt.""; ""24-hour kitchen with fresh ground coffee.""",N/A,N/A,N/A
61926,Hyatt Regency - Tesla,400 W Waterman St,Wichita,KS,67202,United States,37.6839946,-97.3409752,Tesla (Model S/X),13,1,Tesla (Tesla-only charging),Public,Operational,2017-01-26T14:35:00Z,"Access: 24 hours daily; for Tesla use only; for guest use only; see valet for access; ""So much options to choose fromâ€¦eggs, bacon, pancakes, French toast, etc.""; ""Quiet room, comfortable, great staff and service, delicious food too!""; ""Also, they gave starbucks coupons of 2 drinks which can be used in food area.""",Free,N/A,N/A
155590,Thunderbowl - Francis Energy,833 W Choctaw St,Tahlequah,OK,74464,United States,35.91487457,-94.98469893,"CCS (Type 1), CHAdeMO","50, 50",8,Francis Energy,Public,Operational,2024-02-10T13:55:00Z,"General: 50kW DC Fast Chargers Provided by Francis Energy, Access: Use EVGateway App to manage charging; No reviews found","$1.00 to Connect, $0.21 per minute",N/A,N/A
155585,Tahlequah Street,3325 Tahlequah St,Muskogee,Oklahoma,74401,United States,35.76765414,-95.40351614,"CCS (Type 1), CHAdeMO","200, 100",6,Francis Energy,Public,Operational,2024-04-16T14:53:00Z,General: 200kW HPC Chargers Provided by Francis Energy; No reviews found,"$1.00 to Connect, $0.21 per minute",N/A,N/A
159095,BLUE CRANE,901 SW 14th St,Bentonville,AR,72712,United States,36.356194,-94.2211639,Type 1 (J1772),3.7,2,ChargePoint,Public,Operational,2020-06-26T02:58:00Z,"Access: 24 hours daily; ""Tons of brewed beers, nice staff and plenty of food trucks to get some food.""; ""Great atmosphere, service, and quality of drinks!""; ""The Piwa(polish smoked) ipa was awesome...def has a smokey flavor with body.""",N/A,N/A,N/A
124435,Evergy - Emporia Energy Center,1685 Rd 200,Emporia,KS,66801,United States,38.448415,-96.073995,Type 1 (J1772),3.7,1,N/A,Private - Restricted Access,Operational,2024-02-20T10:04:00Z,Access: Fleet use only; No reviews found,N/A,N/A,TRUE
242149,BLUE CRANE BLUE CRANE 14.,1401 NE John Deshields Blvd,Bentonville,AR,72712,United States,36.37846,-94.19316,Type 1 (J1772),3.7,2,ChargePoint,Public,Operational,2024-02-20T09:57:00Z,Access: 24 hours daily; No reviews found,N/A,N/A,N/A
140334,Cherokee Nation W.W. Keeler Complex,17675 S Muskogee Ave,Tahlequah,OK,74464,United States,35.852374,-94.990706,Type 1 (J1772),3.7,8,N/A,Public,Operational,2024-02-20T09:55:00Z,Access: 24 hours daily; No reviews found,N/A,N/A,N/A
124193,EVERGY @WALMART -054C,2250 E Lincoln Ave @ Walmart #34,Nevada,MO,64772,United States,37.83352,-94.327206,Type 1 (J1772),3.7,2,ChargePoint,Public,Operational,2024-02-20T10:02:00Z,Access: 24 hours daily; No reviews found,N/A,N/A,N/A
262585,McLarty Daniel Ford Lincoln,2609 S Walton Blvd,Bentonville,AR,72712,United States,36.34586225,-94.20958346,Type 1 (J1772),3.7,1,N/A,Private - Restricted Access,Operational,2024-02-20T09:57:00Z,"Access: 24 hours daily; ""Greasy friendly service and great people to work with""; ""The staff and management have ALWAYS treated us like family.""; ""They keep this place super clean and well stocked for customers.""",N/A,N/A,TRUE
294008,Doubletree Guest Suites Bentonville,301 Southeast Walton Boulevard,Bentonville,AR,72712,United States,36.336299,-94.205848,Type 1 (J1772),3.7,2,Blink Charging,Public,Operational,2024-02-20T09:57:00Z,"Access: 24 hours daily; ""Good food options, great staff, spacious rooms and comfortable beds.""; ""Great customer service, comfy bed, and spacious room.""; ""Unfortunately this place only serves pork (meats) for breakfast...""",N/A,N/A,N/A
222311,LEDGER L2 #1,226 S Main St,Bentonville,AR,72712,United States,36.37046,-94.20957,Type 1 (J1772),3.7,2,ChargePoint,Public,Operational,2024-02-20T09:57:00Z,Access: 24 hours daily; No reviews found,N/A,N/A,N/A
242151,BLUE CRANE BLUE CRANE 14,1403 NE Beta Ln,Bentonville,AR,72712,United States,36.37873,-94.19273,Type 1 (J1772),3.7,2,ChargePoint,Public,Operational,2024-02-20T09:57:00Z,Access: 24 hours daily; No reviews found,N/A,N/A,N/A
155597,Williams Foods - Francis Energy,201 E 7th Ave,Bristow,OK,74010,United States,35.83467769,-96.38773468,"CCS (Type 1), CHAdeMO","200, 100",4,Francis Energy,Public,Operational,2024-02-09T23:35:00Z,"General: 200kW HPC Chargers Provided by Francis Energy, Access: Use EVGateway App to manage charging ; No reviews found","$1.00 to Connect, $.21 per minute",N/A,N/A
155586,Colton's Steakhouse,565 W Shawnee St,Muskogee,OK,74401,United States,35.76944035,-95.36965486,"CHAdeMO, CCS (Type 1)","50, 50",8,Francis Energy,Public,Operational,2024-02-10T12:48:00Z,"General: 50kW DC Fast Chargers Provided by Francis Energy, Access: Use EVGateway App to manage charging; No reviews found","$1.00 to Connect, $0.21 per minute",N/A,N/A
140510,EV1,3401 Medlin Ln,Bentonville,AR,72712,United States,36.3366863,-94.1861864,Type 1 (J1772),3.7,2,ChargePoint,Public,Operational,2020-06-26T02:58:00Z,Access: 24 hours daily; No reviews found,N/A,N/A,N/A
244462,Evergy - Wichita General Office,100 N Broadway St,Wichita,KS,67202,United States,37.686731,-97.334925,Type 1 (J1772),3.7,2,N/A,Public,Operational,2024-02-20T10:01:00Z,Access: 24 hours daily; pay lot; permit required; No reviews found,N/A,N/A,N/A
140346,Family Dollar,905 S Muskogee Ave,Tahlequah,OK,74464,United States,35.903154,-94.97348,Type 1 (J1772),3.7,1,N/A,Public,Operational,2020-06-26T02:58:00Z,"Access: 24 hours daily; ""Good place to shop friendly staff and good prices on most everything.""; ""Love shopping at either location the workers are amazing.""; ""AWESOME new interior layout and design...beautifully done""",N/A,N/A,N/A
124075,Evergy - Wichita System Control Center,777 W Central Ave,Wichita,KS,67203,United States,37.691343,-97.346264,Type 1 (J1772),3.7,1,N/A,Private - Restricted Access,Operational,2024-02-20T10:01:00Z,Access: Fleet use only; No reviews found,N/A,N/A,TRUE
242147,ROPESWING STATION 1,306 NE Blake Ave,Bentonville,AR,72712,United States,36.374397,-94.205894,Type 1 (J1772),3.7,1,ChargePoint,Public,Operational,2024-02-20T09:57:00Z,Access: 24 hours daily; No reviews found,N/A,N/A,N/A
29705,2811 E Central Ave,2811 E Central Ave,Bentonville,AR,72712,United States,36.380554,-94.17773,Type 1 (J1772),N/A,0,(Unknown Operator),Public,Unknown,2017-11-04T14:04:00Z,No reviews found,N/A,N/A,N/A
41989,Applebee's - Tesla,4760 S Broadway St,Wichita,KS,67216,United States,37.60878,-97.33314,NACS / Tesla Supercharger,150,6,Tesla (Tesla-only charging),Public,Operational,2023-12-03T01:09:00Z,"Access: 24 hours daily; for Tesla use only; ""Great people wonderful service and great food all around great place to.eat""; ""I ordered a whiskey burger well done no lettuce, tomatoes or onions & no side.""; ""Fried things (onion rings, shrimp) were a bit overdone for some at our table.""",$0.20/min >=60kW; $0.10/min <60kW; other tariffs for older cars,N/A,N/A
223255,WATERFRONT STATION 2,1550 Waterfront,Wichita,KS,67206,United States,37.710987,-97.221413,Type 1 (J1772),3.7,2,ChargePoint,Public,Operational,2024-02-20T10:01:00Z,Access: 24 hours daily; No reviews found,N/A,N/A,N/A
223742,EVERGY @PRK LOT 2-433A,20 E 10th Ave @ Municipal Parking Lot,Emporia,KS,66801,United States,38.410133,-96.17944,Type 1 (J1772),3.7,2,ChargePoint,Public,Operational,2024-02-20T10:04:00Z,Access: 24 hours daily; No reviews found,N/A,N/A,N/A
155653,OK Boomer Lake Memorial Parking East - Francis Energy,3023 N3330 Road,Stillwater,OK,74075,United States,36.15237085,-97.05980642,"CCS (Type 1), CHAdeMO","50, 50",2,Francis Energy,Public,Operational,2024-02-10T00:58:00Z,"General: 50kW DC Fast Charger Provided by Francis Energy, Access: Use EVGateway App to manage charging ; No reviews found", $1.00/session+$0.21/minute ,N/A,N/A
159096,THADEN SCHOOL THADEN SCHOOL 2,417 SW 10th St,Bentonville,AR,72712,United States,36.36149,-94.20492,Type 1 (J1772),3.7,2,ChargePoint,Public,Operational,2024-02-20T09:57:00Z,Access: 24 hours daily; No reviews found,N/A,N/A,N/A
155681,SureStay Hotel by Best Western - Francis Energy,4545 W White Ave,Blackwell,OK,74631,United States,36.81481626,-97.33878454,"CCS (Type 1), CHAdeMO","200, 100",8,Francis Energy,Public,Operational,2024-02-09T13:57:00Z,"General: 200kW HPC Chargers Provided by Francis Energy, Access: Use EVGateway App to manage charging ; No reviews found","$1.00 to Connect, $0.21 per minute",N/A,N/A
103513,Muskogee-Davis Regional Airport (davis Field),1201 Sabre St #1,Muskogee,Oklahoma,74403,United States,35.74748,-95.370647,Tesla (Model S/X),16,2,Tesla (Tesla-only charging),Public - Membership Required,Operational,2018-05-04T05:33:00Z,"General: 2 Tesla Connectors, up to 16kW.Available for customers. Self park.; ""Nice people nice place.""; ""The terminal was super clean and nice as well with free coffee for guests.""; ""This was for my husband's birthday and he enjoyed it so much.""",N/A,FALSE,TRUE
262587,McLarty Daniel Chrysler Dodge Jeep Ram,2201 SE Moberly Ln,Bentonville,AR,72712,United States,36.34880991,-94.18251762,Type 1 (J1772),3.7,2,N/A,Public - Notice Required,Operational,2024-02-20T09:57:00Z,"Access: 24 hours daily
Public - Call ahead; ""Great staff, selection, and prices.""; ""I have purchased all of my cars and exclusively service at this location.""; ""They offer coffee, popcorn & free WiFi while you wait.""",N/A,FALSE,FALSE
222318,BLUE CRANE 614 NE ALPHA,614 NE Alpha Cir,Bentonville,AR,72712,United States,36.379386,-94.191325,Type 1 (J1772),3.7,2,ChargePoint,Public,Operational,2024-02-20T09:57:00Z,Access: 24 hours daily; No reviews found,N/A,N/A,N/A
262593,Red Barn Apartments,1525 NW Shores Loop,Bentonville,AR,72712,United States,36.39006417,-94.21297064,Type 1 (J1772),3.7,3,N/A,Public - Pay At Location,Operational,2024-02-20T09:57:00Z,"Access: 24 hours daily
Public - Credit card at all times; ""Prompt service, replacing my door lock battery is much appreciated!""; ""Good place to work nice and new .. has a down home fell to it.""; ""I waited for 40 minutes and called multiple times.""",N/A,TRUE,FALSE
222294,Steve Landers Auto Group,411 S Metro Pkwy,Rogers,AR,72758,United States,36.331137,-94.18501,Type 1 (J1772),3.7,2,Blink Charging,Public,Operational,2024-02-20T09:57:00Z,Access: 24 hours daily; No reviews found,N/A,N/A,N/A
222306,South Walton Suites - Tesla Destination,1120  South Walton Boulevard,Bentonville,AR,72712,United States,36.3583422,-94.2166926,Tesla (Model S/X),3.7,2,Tesla (Tesla-only charging),Public,Operational,2024-02-20T09:57:00Z,No reviews found,N/A,N/A,N/A
13407,Westar Energy Wichita General Office,100 N. Broadway,Wichita,Kansas,67201,United States,37.686486,-97.335413,Type 1 (J1772),N/A,1,(Unknown Operator),Public,Operational,2012-10-03T16:40:00Z,General: Located in the parking lot on the North side of the Bank of America Bldg. Dedicated parking stall.; No reviews found,Free,N/A,N/A
242145,BMW ARKANSAS STATION 01,2101 SE Simple Savings Dr,Bentonville,AR,72712,United States,36.345899,-94.184741,Type 1 (J1772),3.7,2,ChargePoint,Public,Operational,2024-02-20T09:57:00Z,Access: 24 hours daily; No reviews found,N/A,N/A,N/A
242148,BLUE CRANE BLUE CRANE 14-,1407 NE Beta Ln,Bentonville,AR,72712,United States,36.37823,-94.19175,Type 1 (J1772),3.7,2,ChargePoint,Public,Operational,2024-02-20T09:57:00Z,Access: 24 hours daily; No reviews found,N/A,N/A,N/A
222276,FMGI WALMART #5837,5000 W Pauline Whitaker Pkwy,Rogers,AR,72758,United States,36.295555,-94.186633,"CHAdeMO, CCS (Type 1)","50, 50",2,ChargePoint,Public,Operational,2024-02-20T09:57:00Z,Access: 24 hours daily; No reviews found,N/A,N/A,N/A
276107,The Howard,321 Southeast 2nd Street,Bentonville,AR,72712,United States,36.371674,-94.204816,Type 1 (J1772),3.7,6,Blink Charging,Public,Operational,2024-02-20T09:57:00Z,"Access: 24 hours daily; ""Lovely place with lovely staff and management""; ""If you work from home, or enjoy peace and quiet, this is not the place for you.""; ""Great apartments, excellent amenities and modern design.""",N/A,N/A,N/A
123117,Muskogee-Davis Regional Airport (Davis Field) - Tesla Destination,1201 Sabre St,Muskogee,OK,74403,United States,35.74748,-95.370647,Tesla (Model S/X),3.7,2,Tesla (Tesla-only charging),Public,Operational,2024-02-20T09:55:00Z,"""Nice people nice place.""; ""The terminal was super clean and nice as well with free coffee for guests.""; ""This was for my husband's birthday and he enjoyed it so much.""",N/A,N/A,N/A
242144,BMW ARKANSAS STATION 1,2472-2510 SE Moberly Ln,Bentonville,AR,72712,United States,36.345701,-94.184155,Type 1 (J1772),3.7,2,ChargePoint,Public,Operational,2024-02-20T09:57:00Z,Access: 24 hours daily; No reviews found,N/A,N/A,N/A
124016,Evergy - Murray Gill Energy Center,6100 W 55th St S,Wichita,KS,67215,United States,37.596859,-97.411948,Type 1 (J1772),3.7,2,N/A,Private - Restricted Access,Operational,2024-02-20T10:01:00Z,Access: Fleet use only; No reviews found,N/A,N/A,TRUE
11779,Westar Energy-Wichita General Office,100 N Broadway St,Wichita,KS,67202,United States,37.686486,-97.335413,"Type 1 (J1772), Type 1 (J1772)","N/A, N/A",2,Westar Energy ElectroGo,(Unknown),Operational,2012-07-15T08:05:00Z,"General: 1 station is located on the 3rd level of the BOA parking garage; ""Would rather cut your service off,instead of work with certain payment options.""; ""Also tried to run a credit check (I have excellent credit) as well.""; ""I hate we donâ€™t have other options because weâ€™d pick another place.""",Free,N/A,N/A
140501,"Walmart 5260 - Rogers, AR",4280 S Pleasant Crossing Blvd.,Rogers,AR,72758,United States,36.28078,-94.15126,"CHAdeMO, CCS (Type 1), CCS (Type 1)","50, 350, 150",5,Electrify America,Public,Operational,2024-05-01T20:20:00Z,Access: 24 hours daily; No reviews found,N/A,N/A,N/A
276405,EV STATION 1-14 TRAIL ENTRANCE,1400 South St,Osawatomie,KS,66064,United States,38.491875,-94.965628,Type 1 (J1772),3.7,2,ChargePoint,Public,Operational,2024-02-20T10:04:00Z,Access: 24 hours daily; No reviews found,N/A,N/A,N/A
242146,BFPRC STATION 1,1312 Melissa Dr,Bentonville,AR,72712,United States,36.363092,-94.227183,Type 1 (J1772),3.7,2,ChargePoint,Public,Operational,2024-02-20T09:57:00Z,Access: Mon 6:00am - 8:00pm; Tue 6:00am - 8:00pm; Wed 6:00am - 8:00pm; Thu 6:00am - 8:00pm; Fri 6:00am - 8:00pm; Sat 6:00am - 8:00pm; Sun 6:00am - 8:00pm; No reviews found,N/A,N/A,N/A
135351,South Duncan Street,1107 S Duck St,Stillwater,Oklahoma,74074,United States,36.11048879,-97.06156239,"CHAdeMO, CCS (Type 1)","50, 50",8,Francis Energy,Public,Operational,2024-02-11T14:13:00Z,No reviews found,N/A,N/A,N/A
262589,The Momentary Parking Garage,701 SE 8th St,Bentonville,AR,72712,United States,36.36461297,-94.20176506,Type 1 (J1772),3.7,4,N/A,Public - Pay At Location,Operational,2024-02-20T09:57:00Z,"Access: 24 hours daily
Public - Credit card at all times; No reviews found",N/A,TRUE,FALSE
155654,OK Boomer Lake Memorial Parking West - Francis Energy,"Boomer Lake Picnic Pavilions, Boomer Lake Dr",Stillwater,OK,74075,United States,36.15269271,-97.06588137,"CCS (Type 1), CHAdeMO, Type 1 (J1772)","50, 50, 8",3,Francis Energy,Public,Operational,2024-02-10T00:57:00Z,"General: 50kW DC Fast Charger and Level 2 Provided by Francis Energy, Access: Use EVGateway App to manage charging ; No reviews found", $1.00/session+$0.21/minute ,N/A,N/A
6837,Kum & Go #408,2811 E Central Ave,Bentonville,AR,72712,United States,36.379802,-94.177871,"Type 1 (J1772), Type 1 (J1772)","3.7, N/A",2,N/A,Public,Operational,2024-02-20T09:57:00Z,Access: 24 hours daily; No reviews found,N/A,N/A,N/A
101944,Home2 Suites Stillwater,306 E Hall of Fame RD,Stillwater,Oklahoma,74074,United States,36.127464,-97.055908,Tesla (Model S/X),8,2,Tesla (Tesla-only charging),Public - Membership Required,Operational,2018-04-16T04:40:00Z,"General: 2 Tesla Connectors, up to 8kW.Available for customers. Please see front desk.; No reviews found",N/A,FALSE,TRUE
276407,EV STATION 1-14 910 CHERI LN,900 Matney Dr,Osawatomie,KS,66064,United States,38.494975,-94.942759,Type 1 (J1772),3.7,2,ChargePoint,Public,Operational,2024-02-20T10:04:00Z,Access: 24 hours daily; No reviews found,N/A,N/A,N/A
272391,100 W New Hope Rd,100 W New Hope Rd,Rogers,AR,72758,United States,36.311103,-94.117888,Type 1 (J1772),3.7,1,EV Connect,Public,Operational,2023-07-12T08:24:00Z,No reviews found,N/A,N/A,N/A
281994,Harps Food Store #119,1018 S Gutensohn Rd,Springdale,AR,72762,United States,36.1751119,-94.1625582,"CHAdeMO, CCS (Type 1)","120, 150",4,Francis Energy,Public,Operational,2024-02-19T14:18:00Z,Access: 24 hours daily; No reviews found,N/A,N/A,N/A
222133,OZARKS PARKING PARK STATION 7,Dillards North Shiloh Dr.,Fayetteville,AR,72704,United States,36.129955,-94.147343,Type 1 (J1772),3.7,2,ChargePoint,Public,Operational,2024-02-20T09:56:00Z,Access: 24 hours daily; No reviews found,N/A,N/A,N/A
276127,Cox Health,1000 U.S. 60,Monett,MO,65708,United States,36.91559878,-93.89115602,Type 1 (J1772),3.7,2,Blink Charging,Public,Temporarily Unavailable,2024-02-20T09:58:00Z,Access: 24 hours daily; No reviews found,N/A,N/A,N/A
289224,Stuckey's,2818 Fir St,Perry,OK,73077,United States,36.28929753,-97.32576102,"CCS (Type 1), CHAdeMO","50, 50",2,(Unknown Operator),Public,Operational,2024-01-15T02:41:00Z,"General: 1 Station, free charging provided by the City of Perry at the Stuckey's Rest Area; ""The bathrooms was well maintained and eve store was clean.""; ""Dirty inside and out, trash all over the parking lot, no food inside.""; ""This place is a dump.""",Free,N/A,N/A
123470,McLarty Daniel Nissan,2501 SE Moberly Ln,Bentonville,AR,72712,United States,36.34538,-94.182742,Type 1 (J1772),3.7,1,N/A,Public - Notice Required,Operational,2024-02-20T09:57:00Z,"Access: Dealership business hours
Public - Call ahead; No reviews found",N/A,FALSE,FALSE
140417,UARK GAPG01,601 N Lindell Ave,Fayetteville,AR,72701,United States,36.072323,-94.174623,Type 1 (J1772),3.7,2,ChargePoint,Public,Operational,2024-02-20T09:56:00Z,Access: 24 hours daily; No reviews found,N/A,N/A,N/A
222205,OZARKS PARKING STATION 5,1636 S 48th St,Springdale,AR,72762,United States,36.171764,-94.18459,Type 1 (J1772),3.7,2,ChargePoint,Public,Operational,2024-02-20T09:57:00Z,Access: 24 hours daily; No reviews found,N/A,N/A,N/A
123623,Liberty Utilities,703 W Olive,Aurora,MO,65605,United States,36.975977,-93.729391,Type 1 (J1772),3.7,1,N/A,Public,Operational,2023-07-12T08:26:00Z,Access: 24 hours daily; No reviews found,N/A,N/A,N/A
68345,Roof Power Solar,908 Park St,Rich Hill,MO,64779,United States,38.09618447,-94.3597852,Type 1 (J1772),3.7,1,N/A,Public,Operational,2024-02-20T10:03:00Z,Access: 24 hours daily; No reviews found,N/A,N/A,N/A
276410,EV STATION 1-14 528 MAIN,528 Main St,Osawatomie,KS,66064,United States,38.49914,-94.949699,Type 1 (J1772),3.7,2,ChargePoint,Public,Operational,2024-02-20T10:04:00Z,Access: 24 hours daily; No reviews found,N/A,N/A,N/A
123439,228 HARPS 228,916 West Monroe Ave,Lowell,AR,72745,United States,36.256059,-94.155134,Type 1 (J1772),3.7,2,ChargePoint,Public,Operational,2024-02-20T09:57:00Z,"Access: 24 hours daily; ""A bit pricy, but I don't want 2 give my $ to walmart.""; ""Super friendly staff and the best quality cuts of meat in NWA.""; ""Like the prepared foods (fried chicken, fish, wings, etc).""",N/A,N/A,N/A
155598,Williams Grocery - Francis Energy,1417 Main Street,Stroud,OK,74079,United States,35.75143265,-96.66990533,"CCS (Type 1), CHAdeMO","200, 100",4,Francis Energy,Public,Operational,2024-02-09T23:33:00Z,"General: 200kW HPC Chargers Provided by Francis Energy, Access: Use EVGateway App to manage charging; ""Local grocery store, friendly workers and cheap prices""; ""They have a good selection of meats and a very good deli area.""; ""Just love the produce department...super clean and Always stocked""","$1.00 to Connect, $.21 per minute",N/A,N/A
242134,Mobil 38 - Tesla Supercharger,2812 Fir Street,Perry,OK,73077,United States,36.289315,-97.325935,NACS / Tesla Supercharger,150,6,Tesla (including non-tesla),Public,Operational,2024-05-02T13:00:00Z,"Access: 24 hours daily; ""The gas station is very run down, but the staff is nice.""; ""Men's room out of service, women's restroom was filthy.""; ""Nice place to park overnight and rest for Truck drivers.""",N/A,N/A,N/A
222286,Natural State Beer Co,5214 W Village Pkwy,Rogers,AR,72758,United States,36.31625,-94.190292,Type 1 (J1772),3.7,1,N/A,Public,Operational,2024-02-20T09:57:00Z,Access: 24 hours daily; No reviews found,N/A,N/A,N/A
242024,Central Electric Co-Op Headquarters,3305 S Boomer Rd,Stillwater,OK,74074,United States,36.085983,-97.052292,Tesla (Model S/X),3.7,2,N/A,Public,Operational,2024-02-20T09:56:00Z,Access: 24 hours daily; No reviews found,N/A,N/A,N/A
223231,HATCHETT FRONT LOT,757 N Tyler Rd,Wichita,KS,67212,United States,37.69601,-97.44525,"CHAdeMO, CCS (Type 1)","50, 50",2,ChargePoint,Public,Operational,2024-02-20T10:01:00Z,"Access: 24 hours daily; ""Shout out to Dan (the sales manager) and the rest of the sales and service team.""; ""Very thorough car check up, pleasant staff to work with and reasonable prices""; ""Spencer (I assume the manager) refused to service the vehicle.""",N/A,N/A,N/A
140422,INNOV POINTE CENTRAL ELECT,3305 S Boomer Rd,Stillwater,OK,74074,United States,36.085362,-97.05165,Type 1 (J1772),3.7,2,ChargePoint,Public,Operational,2024-02-20T09:56:00Z,"Access: 24 hours daily; ""CREC has exceeded in providing excellent service to me and my family.""; ""Excellent staff and fast service!""; ""They do not care about the customer they care about the money coming in.""",N/A,N/A,N/A
276412,EV STATION 1-14 5TH AND MAIN,432 W Main St,Osawatomie,KS,66064,United States,38.49938,-94.948844,Type 1 (J1772),3.7,2,ChargePoint,Public,Operational,2024-02-20T10:04:00Z,Access: 24 hours daily; No reviews found,N/A,N/A,N/A
222046,UARK HAPG01,178 Harmon Ave,Fayetteville,AR,72701,United States,36.065172,-94.172496,Type 1 (J1772),3.7,2,ChargePoint,Public,Operational,2024-02-20T09:56:00Z,Access: 24 hours daily; No reviews found,N/A,N/A,N/A
155589,Cherokee Business Center - Francis Energy,320 West Locust Street,Stilwell,OK,74960,United States,35.80841395,-94.63227299,"CCS (Type 1), CHAdeMO, Type 1 (J1772)","50, 50, 8.3",8,Francis Energy,Public,Operational,2024-02-10T00:15:00Z,"General: 50kW DC Fast Chargers and Level 2 Provided by Francis Energy, Access: Use EVGateway App to manage charging; No reviews found","$1.00 to Connect, $0.21 per minute",N/A,N/A
140326,OZARKS PARKING STATION 3,470479 OK-51,Stilwell,OK,74960,United States,35.837608,-94.63871,Type 1 (J1772),3.7,2,ChargePoint,Public,Operational,2024-02-20T09:55:00Z,Access: 24 hours daily; No reviews found,N/A,N/A,N/A
306442,"Flying J Travel Center #702 Checotah, OK",1255 Gentry,Checotah,OK,74426,United States,35.47545681,-95.5381223,"CCS (Type 1), CCS (Type 1)","350, 350",4,eVgo Network,Public,Operational,2024-12-08T01:49:00Z,No reviews found,N/A,N/A,N/A
155581,Strickland Park - Francis Energy,351 N Main St,Stillwater,OK,74075,United States,36.1260074,-97.05647884,"CCS (Type 1), CHAdeMO, CCS (Type 1), CHAdeMO","200, 100, 50, 50",8,Francis Energy,Public,Operational,2024-02-10T13:37:00Z,"General: 200kW HPC Chargers Provided by Francis Energy, Access: Use EVGateway App to manage charging; ""Great family place they just put a new skate park a nice feature to have""; ""Small skate park, ball park and large playground.""; ""No trash cans ""lose to play area, so some garbage""","$1.00 to Connect, $0.21 per minute",N/A,N/A
242039,WHOLE FOODS MKT COLLEGE AV STA1,3425 N College Ave,Fayetteville,AR,72703,United States,36.113273,-94.14504,Type 1 (J1772),3.7,2,ChargePoint,Public,Temporarily Unavailable,2024-02-20T09:56:00Z,Access: 24 hours daily; No reviews found,N/A,N/A,N/A
159081,OZARKS PARKING STATION 4,3000 Gene George Blvd,Springdale,AR,72762,United States,36.159045,-94.194226,Type 1 (J1772),3.7,2,ChargePoint,Public,Operational,2024-02-20T09:57:00Z,Access: 24 hours daily; No reviews found,N/A,N/A,N/A
95176,Town of Rich Hill,908 E Park Ave,Rich Hill,Missouri,64779,United States,38.0965519,-94.3574911,Tesla (Model S/X),16,2,Tesla (Tesla-only charging),Public - Membership Required,Operational,2017-11-05T06:52:00Z,"General: 2 Tesla Connectors, up to 16kW.Available to the public. Self park.; No reviews found",N/A,FALSE,TRUE
123422,McLarty Daniel Chevrolet,1159 N 45th St,Springdale,AR,72762,United States,36.19556301,-94.17816151,Type 1 (J1772),3.7,2,N/A,Private - Restricted Access,Operational,2024-02-20T09:57:00Z,"Access: For service center use only; ""Service was quick, well priced and staff were very friendly.""; ""Last weekend sales event, music was so loud couldn't hear much less think.""; ""Great selection of cars, amazing environment, and they have an amazing salesman.""",N/A,N/A,TRUE
276413,EV STATION 1-14 405 CARR,405 Carr Ave,Osawatomie,KS,66064,United States,38.502352,-94.948254,Type 1 (J1772),3.7,2,ChargePoint,Public,Operational,2024-02-20T10:04:00Z,Access: 24 hours daily; No reviews found,N/A,N/A,N/A
244717,Evergy - Newton Service Center,300 W 1st St,Newton,KS,67114,United States,38.043338,-97.349011,Type 1 (J1772),3.7,1,N/A,Public,Operational,2024-02-20T10:03:00Z,"Access: 24 hours daily; ""Great people and a public EV charger""; ""Horrible experience with trying to disconnect our services.""",N/A,N/A,N/A
281944,Cherokee Business Center - Stillwell,802 S 4th St,Stillwell,OK,74960,United States,35.808227,-94.631324,"Type 1 (J1772), CHAdeMO, CCS (Type 1)","3.7, 50, 50",6,EV Energy Group (FCN),Public,Operational,2024-02-20T09:55:00Z,Access: 24 hours daily; No reviews found,N/A,N/A,N/A
